,Unnamed: 0,STORE NAME,LICENSE ID,ACCOUNT NUMBER,SQUARE FEET,BUFFER SIZE,ADDRESS,ZIP CODE,COMMUNITY AREA NAME,COMMUNITY AREA,WARD,CENSUS TRACT,CENSUS BLOCK,LATITUDE,LONGITUDE,x,y
0,0,200 LIQUORS,48663.0,17055.0,5000.0,B,204 E 47TH ST,60653,GRAND BOULEVARD,38,3,17031381500,170314000000000.0,41.80942389,-87.6209518,448420.9767436221,4628803.462564002
1,1,3600 COMMISSARY,24279.0,9830.0,3800.0,B,3600 N LAKE SHORE DR,60613,LAKE VIEW,6,46,17031060900,170311000000000.0,41.94868367,-87.64364976,446651.5297042362,4644278.969133759
2,2,4343 PETES FRESH MARKET,1336669.0,260303.0,57000.0,A,4343 S PULASKI RD,60632,ARCHER HEIGHTS,57,14,17031570100,170316000000000.0,41.81391431,-87.72366494,439893.3162496827,4629368.760639604
3,3,4700 PETE'S FRESH MARKET,1243125.0,245519.0,45000.0,A,4700 S KEDZIE AVE,60632,BRIGHTON PARK,58,14,17031842800,170318000000000.0,41.80804727,-87.70411882,441511.464243346,4628703.878719792
4,4,5659 W. DIVERSEY,1575023.0,277375.0,4000.0,B,5659 W DIVERSEY AVE,60639,BELMONT CRAGIN,19,30,17031190602,170312000000000.0,41.9311354,-87.76861213,436276.57758104044,4642415.939365376
5,5,"7400 S HALSTED FOOD AND LIQUORS, INC.",980.0,186.0,10001.0,A,7400 S HALSTED ST,60621,ENGLEWOOD,68,17,17031681300,170317000000000.0,41.75967458,-87.64442024,446430.1777891668,4623294.372913423
6,6,79 FOOD BASKET,1958784.0,341069.0,3000.0,B,1351 W 79TH ST,60620,AUBURN GRESHAM,71,21,17031710700,170317000000000.0,41.75032112,-87.65818905,445277.6439340521,4622264.571349777
7,7,A & B FOOD MARKET INC,43181.0,6483.0,10001.0,A,5057 W DIVISION ST,60651,AUSTIN,25,37,17031251100,170313000000000.0,41.90216644,-87.75318235,437527.57706781244,4639188.21228556
8,8,A & G LIQUORS,44373.0,35423.0,4800.0,B,6945 S STATE ST,60637,GREATER GRAND CROSSING,69,6,17031690400,170317000000000.0,41.76783128,-87.62476594,448070.5994270922,4624187.9181725085
9,9,A & R FOOD MART,9125.0,4227.0,2500.0,B,5952 W GRAND AVE,60639,BELMONT CRAGIN,19,37,17031191302,170312000000000.0,41.92059646,-87.77519268,435720.42081152153,4641250.728354221
10,10,A & R FOOD MART,1954411.0,340750.0,3500.0,B,5952 W GRAND AVE,60639,BELMONT CRAGIN,19,37,17031191302,170312000000000.0,41.92059646,-87.77519268,435720.42081152153,4641250.728354221
11,11,AARAY GROCERY,1900.0,62541.0,10001.0,A,2601 N HALSTED ST,60614,LINCOLN PARK,7,43,17031070200,170311000000000.0,41.92920982,-87.64874627,446212.7443697712,4642120.0027291775
12,12,ADA FOODS,50473.0,56673.0,4500.0,B,1281 W 71ST ST,60636,WEST ENGLEWOOD,67,17,17031671800,170317000000000.0,41.76489418,-87.6573078,445363.27440129116,4623881.985109544
13,13,ADAMS FOOD MART,1817376.0,316090.0,2500.0,B,559 N LARAMIE AVE,60644,AUSTIN,25,28,17031251600,170313000000000.0,41.89103355,-87.75530965,437340.2459096322,4637953.702164443
14,14,AL BAYAN GROCERY INC.,1542202.0,282078.0,2500.0,B,3134 N NARRAGANSETT AVE,60634,BELMONT CRAGIN,19,36,17031831500,170318000000000.0,41.93756465,-87.78605437,434837.026839191,4643142.881840464
15,15,ALDI,1959623.0,5273.0,15680.0,A,6221 N BROADWAY,60660,EDGEWATER,77,49,17031030103,170310000000000.0,41.99521146,-87.66027799,445313.11876534903,4649455.391701829
16,16,ALDI,1922075.0,5273.0,16615.0,A,6621 S COTTAGE GROVE AVE,60637,WOODLAWN,42,5,17031420800,170314000000000.0,41.77430588,-87.60564803,449664.7140032626,4624895.395579199
17,17,ALDI #28,1519765.0,5273.0,15154.0,A,4934 S KEDZIE AVE,60632,BRIGHTON PARK,58,14,17031630300,170316000000000.0,41.80344571,-87.70398627,441518.2900504666,4628192.89555987
18,18,ALDI #30,1547427.0,5273.0,15154.0,A,3030 S KEDZIE AVE,60623,SOUTH LAWNDALE,30,12,17031840800,170318000000000.0,41.83811415,-87.70499446,441466.119209362,4632042.691515958
19,19,ALDI #32,1975885.0,5273.0,16924.0,A,1840 N CLYBOURN AVE,60614,LINCOLN PARK,7,32,17031832600,170318000000000.0,41.91442371,-87.65462784,445712.5715298225,4640482.034977766
20,20,ALDI #70,1997726.0,5273.0,18263.0,A,7627 S ASHLAND AVE,60620,AUBURN GRESHAM,71,17,17031710300,170317000000000.0,41.75499092,-87.66340416,444848.05108622793,4622786.365486872
21,21,ALDI #79,1515471.0,5273.0,15150.0,A,7800 S SOUTH CHICAGO AVE,60619,AVALON PARK,45,5,17031834300,170318000000000.0,41.75274564,-87.58752349,451154.697532409,4622491.221924356
22,22,ALDI FOODS #91,13994.0,5273.0,15565.0,A,3835 W MADISON ST,60624,WEST GARFIELD PARK,26,28,17031260800,170313000000000.0,41.88065941,-87.72219367,440077.8382245545,4636778.232636027
23,23,ALDI FOODS -STORE #04,13988.0,5273.0,12500.0,A,800 N KEDZIE AVE,60651,HUMBOLDT PARK,23,27,17031836600,170318000000000.0,41.89561531,-87.70670533,441376.62635872967,4638428.052211152
24,24,ALDI FOODS STORE #2,14004.0,5273.0,15600.0,A,4645 W DIVERSEY AVE,60639,HERMOSA,20,31,17031190900,170312000000000.0,41.93146094,-87.74371731,438340.86192013754,4642433.880168269
25,25,ALDI FOODS STORE #26,13998.0,5273.0,15540.0,A,2600 N CLYBOURN AVE,60614,LINCOLN PARK,7,32,17031070700,170311000000000.0,41.928695,-87.67419508,444102.3353388719,4642079.120934144
26,26,ALDI FOODS STORE #30,14000.0,5273.0,14860.0,A,4030 W WRIGHTWOOD AVE,60639,LOGAN SQUARE,22,31,17031220702,170312000000000.0,41.92820785,-87.72815856,439627.72653359437,4642061.622141089
27,27,ALDI FOODS STORE #90B,13992.0,5273.0,15565.0,A,2828 N CENTRAL AVE,60634,BELMONT CRAGIN,19,31,17031190402,170312000000000.0,41.93215768,-87.7664246,436458.95522663294,4642527.818120834
28,28,ALDI FOODS-STORE #27,13986.0,5273.0,12300.0,A,3363 N MILWAUKEE AVE,60641,IRVING PARK,16,30,17031161300,170312000000000.0,41.94238351,-87.72901086,439570.4449410463,4643636.1259621475
29,29,ALDI INC # 62,13984.0,5273.0,12646.0,A,6220 N CALIFORNIA AVE,60659,WEST RIDGE,2,50,17031020702,170310000000000.0,41.99462096,-87.69968686,442048.5649657642,4649415.74772896
30,30,ALDI INC #06,13978.0,5273.0,14000.0,A,5001 N PULASKI RD,60630,ALBANY PARK,14,39,17031140302,170311000000000.0,41.97198122,-87.7279869,439683.2410969707,4646921.60848707
31,31,ALDI INC #10,14002.0,5273.0,15540.0,A,4501 S PULASKI RD,60632,ARCHER HEIGHTS,57,14,17031570100,170316000000000.0,41.81145154,-87.72357465,439898.51336526114,4629095.265443047
32,32,ALDI INC #53,13964.0,5273.0,13981.0,A,5775 S ARCHER AVE,60638,GARFIELD RIDGE,56,23,17031560700,170316000000000.0,41.79638049,-87.75734757,437078.5081238826,4627446.155850272
33,33,ALDI INC #58,13974.0,5273.0,12571.0,A,2431 W MONTROSE AVE,60618,NORTH CENTER,5,47,17031050300,170311000000000.0,41.9611941,-87.68996697,442823.72319259064,4645697.854929914
34,34,ALDI INC #64,13976.0,5273.0,11760.0,A,1767 N MILWAUKEE AVE,60647,WEST TOWN,24,32,17031831000,170318000000000.0,41.91358779,-87.68220284,443425.0631020512,4640407.046375296
35,35,ALDI INC #83,13990.0,5273.0,16300.0,A,8333 S CICERO AVE,60652,ASHBURN,70,18,17031700302,170317000000000.0,41.74091107,-87.74092286,438390.05213001085,4621275.747597208
36,36,ALDI INC #92,13996.0,5273.0,19410.0,A,620 W 63RD ST,60621,ENGLEWOOD,68,16,17031680900,170317000000000.0,41.77992005,-87.64092551,446737.44168585155,4625539.959584561
37,37,ALDI INC STORE #16,1226990.0,5273.0,20848.0,A,1246 E 87TH ST,60619,AVALON PARK,45,8,17031834300,170318000000000.0,41.73691535,-87.59365662,450632.6764160761,4620737.17054034
38,38,ALDI INC STORE #62,14006.0,5273.0,9495.0,B,1739 W CERMAK RD,60608,LOWER WEST SIDE,31,25,17031843200,170318000000000.0,41.8521512,-87.6700746,444377.6006112173,4633577.971070261
39,39,ALDI INC STORE #90,14008.0,5273.0,16340.0,A,9017 S HALSTED ST,60620,AUBURN GRESHAM,71,21,17031711500,170317000000000.0,41.73029727,-87.64330909,446498.1628891438,4620032.074103848
40,40,ALDI INC STORE #95,14011.0,5273.0,37000.0,A,2333 E 95TH ST,60617,SOUTH DEERING,51,7,17031510300,170315000000000.0,41.72246624,-87.56667305,452866.02493495995,4619117.842703028
41,41,ALDI INC STORE 14,1242812.0,5273.0,15000.0,A,5629 W FILLMORE ST,60644,AUSTIN,25,29,17031831400,170318000000000.0,41.86731565,-87.76559794,436463.2427314185,4635327.924926538
42,42,ALDI INC. #96,1868821.0,5273.0,16117.0,A,821 W 115TH ST,60643,WEST PULLMAN,53,34,17031530300,170315000000000.0,41.68496064,-87.64302231,446484.4276394804,4614998.441929911
43,43,ALDI INC.#94,14010.0,5273.0,10001.0,A,6025 S WESTERN AVE,60636,CHICAGO LAWN,66,16,17031835000,170318000000000.0,41.78396584,-87.68362338,443192.6914018084,4626016.47360759
44,44,ALDI'S,1817904.0,5273.0,11179.0,A,6520 W FULLERTON AVE,60707,BELMONT CRAGIN,19,36,17031831500,170318000000000.0,41.9237604,-87.78874776,434599.6465310606,4641612.265392103
45,45,ALDI'S,1817903.0,5273.0,15255.0,A,4500 N BROADWAY,60640,UPTOWN,3,46,17031830700,170318000000000.0,41.96378896,-87.65660649,445590.465114221,4645964.237229163
46,46,ALDI'S # 26,1821323.0,5273.0,16550.0,A,10532 S INDIANAPOLIS AVE,60617,EAST SIDE,52,10,17031520100,170315000000000.0,41.70366236,-87.52571243,456260.25797504047,4617008.548181892
47,47,ALDI'S #08,1743166.0,5273.0,16890.0,A,7333 S STATE ST,60619,GREATER GRAND CROSSING,69,6,17031691000,170317000000000.0,41.76088087,-87.62466578,448073.3206505939,4623416.188158727
48,48,ALDI'S #47,1619769.0,5273.0,16370.0,A,1508 W 47TH ST,60609,NEW CITY,61,3,17031842600,170318000000000.0,41.80874139,-87.66291163,444935.0047676932,4628753.721077145
49,49,ALDI'S #93,1743165.0,5273.0,16890.0,A,7545 S WESTERN AVE,60620,ASHBURN,70,18,17031700100,170317000000000.0,41.75603509,-87.68285832,443231.645543095,4622914.948664571
50,50,ALDI'S FOODS BELMONT,1975886.0,5273.0,18600.0,A,3320 W BELMONT AVE,60618,AVONDALE,21,35,17031831100,170318000000000.0,41.93940519,-87.71090059,441068.9171394079,4643292.838340963
51,51,ALL STAR FOOD & LIQUOR,1922124.0,319069.0,4200.0,B,2911 S ARCHER AVE,60608,BRIDGEPORT,60,11,17031600700,170316000000000.0,41.84148404,-87.65802198,445369.0100095021,4632385.894534789
52,52,ALLA'S FOOD,1068956.0,204849.0,3500.0,B,2024 E 93RD ST,60617,CALUMET HEIGHTS,48,8,17031480400,170315000000000.0,41.72624035,-87.57429226,452235.07734835654,4619541.059700494
53,53,ALMUFLIHI FOOD & LIQUOR,62800.0,86373.0,4500.0,B,5404 S HALSTED ST,60609,NEW CITY,61,20,17031612100,170316000000000.0,41.7958708,-87.64534412,446383.5346613177,4627313.646559184
54,54,AM-PM FOOD MART & CELLULAR,1093813.0,207399.0,3500.0,B,1924 E 87TH ST,60617,AVALON PARK,45,8,17031450300,170315000000000.0,41.73714625,-87.57708099,452011.25075622014,4620753.430798544
55,55,ANAR INC,31219.0,14297.0,10001.0,A,935 E 79TH ST,60619,CHATHAM,44,8,17031440101,170314000000000.0,41.75121793,-87.60140141,449999.72993674874,4622329.580203758
56,56,ANDYS FRUIT RANCH,1275209.0,3868.0,15000.0,A,4733 N KEDZIE AVE,60625,ALBANY PARK,14,33,17031140800,170311000000000.0,41.96762916,-87.70830369,441310.09149488003,4646424.731830057
57,57,ARISTA FOODS,1473367.0,271891.0,10000.0,A,112 N MAY ST,60607,NEAR WEST SIDE,28,27,17031833000,170318000000000.0,41.88340212,-87.65572529,445595.23577700247,4637038.474651396
58,58,ARMITAGE PRODUCE INC,1771323.0,4469.0,14340.0,A,2007 N KIMBALL AVE,60647,LOGAN SQUARE,22,35,17031221100,170312000000000.0,41.91756242,-87.71175511,440977.94843785465,4640868.258327281
59,59,AROUND THE CLOCK,15860.0,6777.0,3000.0,B,1605 W HOWARD ST,60626,ROGERS PARK,1,49,17031010202,170310000000000.0,42.01926518,-87.67157207,444398.64304191066,4652133.346040577
60,60,ASHLAND FOOD AND LIQUORS,11636.0,5463.0,10001.0,A,1554 W 95TH ST,60643,WASHINGTON HEIGHTS,73,21,17031730201,170317000000000.0,41.72132699,-87.66253366,444891.64725198405,4619048.282330352
61,61,ATHENS GROCERY,971.0,185.0,2600.0,B,324 S HALSTED ST,60661,NEAR WEST SIDE,28,27,17031833100,170318000000000.0,41.87716213,-87.64736429,446283.71562375687,4636340.398556669
62,62,AVENUE FOOD MAR INC,1246771.0,20727.0,18000.0,A,6850 W BELMONT AVE,60634,DUNNING,17,36,17031171000,170312000000000.0,41.93823738,-87.79776035,433867.30333288066,4643226.538702827
63,63,AWAMI BAZAAR & ZABIHA MEAT,68226.0,20954.0,2500.0,B,2340 W DEVON AVE,60659,WEST RIDGE,2,50,17031020500,170310000000000.0,41.99785369,-87.68906427,442931.2719068521,4649767.542260491
64,64,B & H FOOD & GROCERY,6068.0,3550.0,4500.0,B,713 S ALBANY AVE,60612,EAST GARFIELD PARK,27,28,17031837300,170318000000000.0,41.87235004,-87.70327264,441640.21140455443,4635842.626982847
65,65,Baltimore Food & Liquor,1446831.0,270755.0,3404.0,B,13322 S BALTIMORE AVE,60633,HEGEWISCH,55,10,17031550100,170316000000000.0,41.65296461,-87.54729865,454428.50662012,4611391.109740433
66,66,BARI,1245246.0,246600.0,2500.0,B,1120 W GRAND AVE,60622,WEST TOWN,24,27,17031243500,170312000000000.0,41.89121012,-87.65556024,445615.5526186936,4637905.272516904
67,67,BERBATE FRUIT MARKET,1646036.0,296646.0,2500.0,B,3956 N NARRAGANSETT AVE,60634,DUNNING,17,38,17031170300,170312000000000.0,41.95273156,-87.78669844,434799.0897637772,4644827.337333053
68,68,BIG APPLE FINER FOODS INC,4900.0,3297.0,9000.0,B,2345 N CLARK ST,60614,LINCOLN PARK,7,43,17031071400,170311000000000.0,41.92496618,-87.63992602,446940.5142278077,4641643.343507
69,69,BOB'S LIQUORS & GROCERIES,957.0,86492.0,10001.0,A,5069 W MADISON ST,60644,AUSTIN,25,28,17031252201,170313000000000.0,41.88029609,-87.7524942,437563.3603284422,4636759.494524794
70,70,BOCKWINKELS,1491357.0,276156.0,7200.0,B,222 N COLUMBUS DR,60601,LOOP,32,42,17031320100,170313000000000.0,41.88633942,-87.62083615,448492.31933867146,4637343.065374379
71,71,BOULEVARD FOOD & LIQUOR LLC,1931999.0,336958.0,3350.0,B,5922 W IRVING PARK RD,60634,PORTAGE PARK,15,38,17031150402,170312000000000.0,41.95318259,-87.77525938,435747.6088261479,4644868.775134547
72,72,BROADWAY SUPERMARKET,50737.0,17352.0,15000.0,A,4879 N BROADWAY,60640,UPTOWN,3,48,17031031200,170310000000000.0,41.97117118,-87.65958098,445350.2935028407,4646785.770951408
73,73,BUDGET FINER FOODS,1337515.0,260726.0,3200.0,B,6604 N SHERIDAN RD,60626,ROGERS PARK,1,49,17031010502,170310000000000.0,42.00272611,-87.66093837,445264.8634979634,4650290.162400744
74,74,BURNHAM PLAZA MART,2014232.0,350131.0,2950.0,B,828 S WABASH AVE,60605,LOOP,32,2,17031320600,170313000000000.0,41.8714442,-87.62607513,448045.6015030459,4635692.448115591
75,75,BUSY BEE SUPERMARKET,1974525.0,343785.0,2500.0,B,5659 S ASHLAND AVE,60636,WEST ENGLEWOOD,67,16,17031670200,170317000000000.0,41.79048002,-87.66434507,444800.2650583828,4626727.157046608
76,76,BUY -N- SAVE,62460.0,19735.0,8000.0,B,209 E 103RD ST,60628,ROSELAND,49,9,17031490902,170315000000000.0,41.70713532,-87.61824173,448564.4736949721,4617445.260563324
77,77,CAESAR'S FOODS INC,13670.0,6312.0,10001.0,A,901 N DAMEN AVE,60622,WEST TOWN,24,32,17031242200,170312000000000.0,41.89777928,-87.67695887,443846.09509253514,4638648.415267664
78,78,"CALABRIA IMPORTS, INC.",1357606.0,264103.0,3100.0,B,1905 W 103RD ST,60643,BEVERLY,72,19,17031720700,170317000000000.0,41.70647332,-87.66935499,444311.43814416556,4617403.5547318
79,79,"CALMA OPTIMAL DELI, INC.",1991322.0,346718.0,3000.0,B,5155 W ADDISON ST,60641,PORTAGE PARK,15,38,17031151001,170312000000000.0,41.9458951,-87.75664585,437283.138211712,4644045.865147722
80,80,CARNICERIA DEL RIO,1801493.0,314238.0,3000.0,B,2714 W CERMAK RD,60608,SOUTH LAWNDALE,30,28,17031840700,170318000000000.0,41.85203474,-87.69369691,442416.6150673183,4633580.612143693
81,81,CARNICERIA EL PORVENIR,1768971.0,311076.0,2500.0,B,150 E KENSINGTON AVE,60628,WEST PULLMAN,53,9,17031530100,170315000000000.0,41.6840632,-87.61874297,448504.37106522534,4614884.007763893
82,82,CARNICERIA GUANAJUATO,2069477.0,358374.0,9325.0,B,5250 W FULLERTON AVE,60639,BELMONT CRAGIN,19,31,17031190702,170312000000000.0,41.92418915,-87.75822974,437130.53711946553,4641637.042968495
83,83,CARNICERIA GUANAJUATO #3,2060960.0,357299.0,9000.0,B,3132 N CALIFORNIA AVE,60618,AVONDALE,21,33,17031210800,170312000000000.0,41.93856972,-87.69794595,442142.0604406592,4643191.252673925
84,84,CARNICERIA GUANJUATO #3,17340.0,63206.0,8800.0,B,1436 N ASHLAND AVE,60622,WEST TOWN,24,1,17031241500,170312000000000.0,41.90811537,-87.66776383,444617.7628186791,4639790.0310588265
85,85,CARNICERIA JIMENEZ #2,48081.0,16943.0,19000.0,A,3850 W FULLERTON AVE,60647,LOGAN SQUARE,22,30,17031220701,170312000000000.0,41.92462832,-87.72395332,439973.0332130632,4641661.240233696
86,86,CARNICERIA JIMENEZ INC,1693.0,85292.0,16000.0,A,4204 W NORTH AVE,60639,HUMBOLDT PARK,23,30,17031230500,170312000000000.0,41.90992525,-87.73155722,439328.6228669692,4640034.135280913
87,87,CARNICERIA LA AZTECA,1354069.0,262231.0,2500.0,B,7067 N CLARK ST,60626,ROGERS PARK,1,49,17031010702,170310000000000.0,42.01096295,-87.67421466,444172.5939139831,4651213.2698048465
88,88,CARNICERIA LA GLORIA,1471030.0,271545.0,6500.0,B,2551 W 51ST ST,60632,GAGE PARK,63,14,17031630500,170316000000000.0,41.80096928,-87.6887221,442784.12261305377,4627907.674298794
89,89,"CARNICERIA LA GLORIA NO. 2, INC.",1514813.0,279304.0,7500.0,B,2744 W 55TH ST,60632,GAGE PARK,63,14,17031630500,170316000000000.0,41.79381183,-87.6931506,442409.81330310385,4627115.969671858
90,90,"CARNICERIA LA HACIENDA, INC.",1492826.0,276948.0,4000.0,B,3459 W 59TH ST,60629,CHICAGO LAWN,66,16,17031660400,170317000000000.0,41.7860244,-87.71060478,440952.4839142193,4626263.204428951
91,91,"CARNICERIA LA MEJOR PRODUCE, INC.",1800292.0,313836.0,4500.0,B,2915 N MILWAUKEE AVE,60618,AVONDALE,21,35,17031210602,170312000000000.0,41.9343144,-87.715772,440660.3733721938,4642730.975572612
92,92,CARNICERIA LA VILLA #2,2060542.0,357089.0,3289.0,B,5800 W GRAND AVE,60639,BELMONT CRAGIN,19,37,17031191302,170312000000000.0,41.9197749,-87.77072653,436089.9400730653,4641156.173740673
93,93,CARNICERIA RICARDO,35191.0,15006.0,5000.0,B,4419 W DIVERSEY AVE,60639,HERMOSA,20,31,17031200200,170312000000000.0,41.93154075,-87.73757251,438850.38623817445,4642438.340420497
94,94,CARNICERIA&FRUTERIA EL MITOTE,49322.0,17160.0,4500.0,B,4459 W BELMONT AVE,60641,HERMOSA,20,31,17031200100,170312000000000.0,41.93881951,-87.7394338,438703.0425208804,4643247.820179169
95,95,CENTRAL PARK FOODS INC,13813.0,6373.0,8000.0,B,3604 W GRAND AVE,60651,HUMBOLDT PARK,23,26,17031231200,170312000000000.0,41.90247367,-87.71681747,440544.1509502237,4639196.480121997
96,96,CENTRO MARKET,66257.0,20469.0,9100.0,B,5153 S KEDZIE AVE,60632,GAGE PARK,63,14,17031630400,170316000000000.0,41.79925704,-87.70357471,441548.67280256224,4627727.564545878
97,97,CERMAK PRODUCE,53313.0,17784.0,10000.0,A,4800 W DIVERSEY AVE,60639,BELMONT CRAGIN,19,31,17031190200,170312000000000.0,41.93164142,-87.74671991,438092.09929525084,4642456.082359243
98,98,CERMAK PRODUCE,1574003.0,286531.0,14000.0,A,4401 W ARMITAGE AVE,60639,HERMOSA,20,31,17031831200,170318000000000.0,41.91693444,-87.73638715,438934.7340719332,4640815.78064913
99,99,CERMAK PRODUCE,1476657.0,273150.0,15000.0,A,1711 W CERMAK RD,60608,LOWER WEST SIDE,31,25,17031843200,170318000000000.0,41.85216786,-87.66897504,444468.8891515298,4633579.109113803
100,100,CERMAK PRODUCE,1770942.0,311980.0,17000.0,A,3311 W 26TH ST,60623,SOUTH LAWNDALE,30,22,17031840800,170318000000000.0,41.84436673,-87.70789805,441230.76194537216,4632738.877801639
101,101,CERMAK PRODUCE,1515206.0,279468.0,25000.0,A,5220 S PULASKI RD,60632,WEST ELSDON,62,23,17031620200,170316000000000.0,41.79799187,-87.72344374,439896.80864500307,4627600.799653065
102,102,CERMAK PRODUCE,1476654.0,273149.0,29000.0,A,4234 N KEDZIE AVE,60618,IRVING PARK,16,33,17031160501,170312000000000.0,41.95859672,-87.70830958,441301.3132550584,4645421.872603465
103,103,CERMAK PRODUCE #5 LTD,1649774.0,298958.0,10000.0,A,3435 S ARCHER AVE,60608,MCKINLEY PARK,59,11,17031840300,170318000000000.0,41.8313499,-87.67584785,443880.191376212,4631272.228208839
104,104,CERMAK PRODUCE NO.4,69608.0,21223.0,17000.0,A,2701 W NORTH AVE,60647,WEST TOWN,24,26,17031241000,170312000000000.0,41.91013224,-87.69460039,442393.82436740707,4640031.635668836
105,105,CHARLIES  SUPERMARKET INC.,1441898.0,268397.0,2500.0,B,2941 W MONTROSE AVE,60618,IRVING PARK,16,33,17031160601,170312000000000.0,41.96111443,-87.70258694,441777.85166618566,4645697.507178765
106,106,CHATHAM FOOD MARKET,1904290.0,331037.0,4500.0,B,327 E 79TH ST,60619,CHATHAM,44,6,17031440300,170314000000000.0,41.75097268,-87.61695788,448706.17037673667,4622311.508680768
107,107,CHICAGO FOOD CORP,1169745.0,11429.0,10000.0,A,5800 N PULASKI RD,60646,NORTH PARK,13,39,17031130200,170311000000000.0,41.98592799,-87.72866342,439640.3609133786,4648470.586657346
108,108,CHICAGO GROCERS,1332221.0,258200.0,2500.0,B,2122 W DEVON AVE,60659,WEST RIDGE,2,50,17031020500,170310000000000.0,41.99794589,-87.68356871,443386.5016120968,4649774.131082882
109,109,Chicago Health - Maple Street,2065274.0,357879.0,2900.0,B,22 W MAPLE ST,60610,NEAR NORTH SIDE,8,42,17031081100,170311000000000.0,41.90198255,-87.6292631,447805.9121759026,4639084.976065756
110,110,CHICAGO PRODUCE,1865.0,368.0,13500.0,A,3500 W LAWRENCE AVE,60625,ALBANY PARK,14,39,17031140200,170311000000000.0,41.96848537,-87.71587133,440683.8291127056,4646525.007799881
111,111,CICERO DELI INC.,20884.0,8639.0,3600.0,B,3206 N CICERO AVE,60641,PORTAGE PARK,15,30,17031151002,170312000000000.0,41.93904667,-87.74702197,438074.2207567409,4643278.495248725
112,112,CITY GROCERY,1979483.0,344633.0,5000.0,B,405 N WABASH AVE,60611,NEAR NORTH SIDE,8,42,17031081500,170311000000000.0,41.88946533,-87.62650927,448024.1807160036,4637693.547830515
113,113,CLARENDON FOOD MART INC,29515.0,11687.0,10000.0,A,4183 N CLARENDON AVE,60613,UPTOWN,3,46,17031031400,170310000000000.0,41.9580048,-87.64965374,446161.7367500132,4645317.636829703
114,114,CLYBOURN MARKET,40522.0,15968.0,3500.0,B,2807 N CLYBOURN AVE,60618,NORTH CENTER,5,1,17031051400,170311000000000.0,41.93257918,-87.67832746,443763.1289534023,4642513.077347887
115,115,COMMERCIAL GROCERY,56894.0,23932.0,2500.0,B,3004 E 100TH ST,60617,SOUTH DEERING,51,10,17031510100,170315000000000.0,41.71349784,-87.55073311,454185.4915593432,4618113.53074756
116,116,CORCORANS PANTRY INC,9412.0,4333.0,4200.0,B,1105 W BRYN MAWR AVE,60660,EDGEWATER,77,48,17031030701,170310000000000.0,41.98354479,-87.65826767,445469.6658686643,4648158.766057564
117,117,COTTAGE GROVE FOOD MART,1898994.0,329883.0,4000.0,B,6307 S COTTAGE GROVE AVE,60637,WOODLAWN,42,20,17031420800,170314000000000.0,41.78015196,-87.60577752,449658.5242300994,4625544.53382071
118,118,COUNTY FAIR FOODS,37096.0,15344.0,10001.0,A,10800 S WESTERN AVE,60643,MORGAN PARK,75,19,17031750300,170318000000000.0,41.69723821,-87.6814748,443294.9833144841,4616386.144643248
119,119,CRESPO'S FOOD MART,40132.0,15902.0,2800.0,B,4353 W MADISON ST,60624,WEST GARFIELD PARK,26,28,17031260600,170313000000000.0,41.880505,-87.73512285,439004.9194691975,4636770.1971519245
120,120,CUENCA'S BAKERY & GROCERIES,1619464.0,292181.0,4500.0,B,4229 W MONTROSE AVE,60641,IRVING PARK,16,38,17031160300,170312000000000.0,41.96076752,-87.73394693,439178.759334351,4645680.774001508
121,121,CUPBOARD FOOD & LIQUOR,7110.0,3758.0,3000.0,B,3260 W 55TH ST,60632,GAGE PARK,63,14,17031630300,170316000000000.0,41.79358918,-87.70594578,441346.52097775205,4627099.900556418
122,122,D & A FOOD & LIQUOR,46444.0,7945.0,5500.0,B,1601 W GARFIELD BLVD,60636,WEST ENGLEWOOD,67,15,17031670300,170317000000000.0,41.79355436,-87.66463755,444778.6019040011,4627068.675533433
123,123,DANNY'S FRESH MARKET,1888080.0,326926.0,14405.0,A,2140 N WESTERN AVE,60647,LOGAN SQUARE,22,1,17031221500,170312000000000.0,41.92109627,-87.68767101,442978.2711890707,4641244.320311759
124,124,DEVON MARKET,1042888.0,201952.0,18500.0,A,1440 W DEVON AVE,60660,ROGERS PARK,1,40,17031010600,170310000000000.0,41.99822825,-87.66710447,444750.3290023336,4649794.726834657
125,125,DIA FOOD & LIQUOR,41854.0,16133.0,4500.0,B,1478 W 115TH ST,60643,MORGAN PARK,75,34,17031750600,170318000000000.0,41.6849558,-87.65972583,445094.264889077,4615008.4153595
126,126,DILILAH GROCERY,1986580.0,346168.0,3125.0,B,1759 W 21ST ST,60608,LOWER WEST SIDE,31,25,17031310800,170313000000000.0,41.85396788,-87.67087019,444313.13477717084,4633780.186988431
127,127,DISCOUNT MEAT COMPANY,13820.0,6377.0,4160.0,B,339 W 79TH ST,60620,CHATHAM,44,17,17031842400,170318000000000.0,41.75068744,-87.63338093,447340.5198375326,4622289.761142962
128,128,DISCOUNT PANTRY CORPORATION,32952.0,14616.0,3600.0,B,4153 W 63RD ST,60629,WEST LAWN,65,13,17031650301,170317000000000.0,41.77849291,-87.72732752,439555.830812596,4625438.635556931
129,129,DOLLAR & LINEN,1875260.0,46290.0,5800.0,B,1853 W 87TH ST,60620,AUBURN GRESHAM,71,21,17031711300,170317000000000.0,41.73558907,-87.66995173,444286.94647547964,4620636.497295024
130,130,DOLLAR DEALS & UP,1276566.0,252997.0,2500.0,B,2057 N PULASKI RD,60639,HERMOSA,20,30,17031200402,170312000000000.0,41.91889126,-87.72646532,439759.35198160127,4641026.025712301
131,131,DOMINICK'S,1969836.0,5033.0,59488.0,A,6623 N DAMEN AVE,60645,WEST RIDGE,2,50,17031020500,170310000000000.0,42.00222338,-87.68012883,443675.1681001983,4650246.790842712
132,132,DOMINICK'S # 1100,41629.0,5033.0,10001.0,A,3145 S ASHLAND AVE,60608,MCKINLEY PARK,59,11,17031840400,170318000000000.0,41.83646835,-87.6655669,444738.2894500381,4631833.84635409
133,133,DOMINICK'S # 113/1113,41633.0,5033.0,10001.0,A,6312 N NAGLE AVE,60646,NORWOOD PARK,10,41,17031100200,170311000000000.0,41.99598529,-87.78763712,434765.4480318513,4649630.491221539
134,134,DOMINICK'S # 12/0012,41645.0,5033.0,10001.0,A,6009 N BROADWAY,60660,EDGEWATER,77,48,17031030101,170310000000000.0,41.99118175,-87.66015508,445319.849592849,4649007.896490867
135,135,DOMINICK'S # 130/1130,41657.0,5033.0,10001.0,A,2101 E 71ST ST,60649,SOUTH SHORE,43,5,17031430600,170314000000000.0,41.76599,-87.57378734,452306.50052736985,4623953.967505744
136,136,DOMINICK'S # 304/2304,41617.0,5033.0,10001.0,A,2550 N CLYBOURN AVE,60614,LINCOLN PARK,7,32,17031070700,170311000000000.0,41.92787172,-87.67325881,444179.2443434514,4641987.103594846
137,137,DOMINICK'S # 86/1086,41625.0,5033.0,10001.0,A,3350 N WESTERN AVE,60618,NORTH CENTER,5,47,17031843700,170318000000000.0,41.9427472,-87.68835432,442940.9108173021,4643648.643144202
138,138,DOMINICK'S #147/1147,41674.0,5033.0,68000.0,A,1340 S CANAL ST,60607,NEAR WEST SIDE,28,2,17031841900,170318000000000.0,41.86452119,-87.6393041,446942.07553114265,4634931.898292906
139,139,DOMINICK'S #153/2153,41678.0,5033.0,68000.0,A,424 W DIVISION ST,60610,NEAR NORTH SIDE,8,27,17031080400,170311000000000.0,41.90388396,-87.6394372,446963.5934881343,4639302.325461659
140,140,DOMINICK'S #160/1698,41689.0,5033.0,72000.0,A,1763 W HOWARD ST,60626,ROGERS PARK,1,49,17031010202,170310000000000.0,42.01928855,-87.67505851,444110.0098376382,4652138.211545673
141,141,Dominick's #1703,1574461.0,5033.0,49320.0,A,255 E GRAND AVE,60611,NEAR NORTH SIDE,8,42,17031081403,170311000000000.0,41.89168984,-87.62044413,448529.1386899964,4637936.873469829
142,142,DOMINICK'S #1875,1273445.0,5033.0,39000.0,A,1 N HALSTED ST,60661,NEAR WEST SIDE,28,27,17031280100,170313000000000.0,41.88181563,-87.64721472,446300.02279916714,4636856.970498795
143,143,DOMINICKS #2889,2042084.0,5033.0,48735.0,A,5233 N LINCOLN AVE,60625,LINCOLN SQUARE,4,40,17031040202,170310000000000.0,41.9768951,-87.69227967,442646.1592740362,4647442.669011444
144,144,DOMINICKS #2890,2042094.0,5033.0,55129.0,A,5201 N SHERIDAN RD,60640,EDGEWATER,77,48,17031030706,170310000000000.0,41.97648167,-87.65483978,445747.6354301745,4647372.376457831
145,145,DOMINICK'S FINER FOODS - STORE # 2775,1820382.0,5033.0,54963.0,A,2021 W CHICAGO AVE,60622,WEST TOWN,24,1,17031243000,170312000000000.0,41.89578523,-87.67793089,443763.7159726949,4638427.657139846
146,146,"DOMINICK'S Finer Foods, Inc. #1695",41682.0,5033.0,26819.0,A,959 W FULLERTON AVE,60614,LINCOLN PARK,7,43,17031071100,170311000000000.0,41.92526828,-87.65348756,445816.30907266325,4641685.365712953
147,147,E.M. GROCERIES,4863.0,3289.0,4500.0,B,5358 S CARPENTER ST,60609,NEW CITY,61,16,17031612000,170316000000000.0,41.79612897,-87.6514349,445877.71536274435,4627346.126873848
148,148,EDDIE & SON FOOD &LIQ.,4146.0,3169.0,2500.0,B,3624 W NORTH AVE,60647,HUMBOLDT PARK,23,26,17031230400,170312000000000.0,41.91009267,-87.71757535,440488.3653469262,4640042.92794302
149,149,EDDIE'S FOOD MART,50432.0,17311.0,4500.0,B,1858 W 63RD ST,60636,WEST ENGLEWOOD,67,15,17031670600,170317000000000.0,41.77946116,-87.67143667,444201.47504464496,4625508.359585146
150,150,"EDDIE'S SUNSHINE FOOD & LIQUOR,  INC.",24217.0,63476.0,3000.0,B,10806 S MICHIGAN AVE,60628,ROSELAND,49,9,17031490901,170315000000000.0,41.69781792,-87.621011,448326.6198729054,4616412.464776656
151,151,EDDY'S FOOD MART,1879269.0,324962.0,4000.0,B,7575 N ROGERS AVE,60626,ROGERS PARK,1,49,17031010300,170310000000000.0,42.01916463,-87.66839729,444661.406168494,4652120.1244532205
152,152,EDGEWATER PRODUCE,16765.0,6928.0,7400.0,B,5509 N CLARK ST,60640,EDGEWATER,77,48,17031030800,170310000000000.0,41.98197138,-87.66832103,444635.48695823346,4647990.520877813
153,153,EL  PASEO  BORICUA,1301216.0,254645.0,3000.0,B,2706 W DIVISION ST,60622,WEST TOWN,24,26,17031242600,170312000000000.0,41.9030542,-87.69477042,442373.35782742116,4639245.889692964
154,154,EL BARRIO GROCERY,42681.0,16221.0,10001.0,A,3938 W NORTH AVE,60647,HUMBOLDT PARK,23,30,17031230400,170312000000000.0,41.91000804,-87.72543846,439836.16027354146,4640039.017247666
155,155,EL MILAGRO,43513.0,2718.0,5500.0,B,3048 W 26TH ST,60623,SOUTH LAWNDALE,30,12,17031300900,170313000000000.0,41.84468733,-87.70210294,441712.1619329232,4632770.523599461
156,156,EL YUNQUE FOOD & LIQUOR,1986802.0,346323.0,2500.0,B,1900 N CALIFORNIA AVE,60647,LOGAN SQUARE,22,35,17031222500,170312000000000.0,41.91576102,-87.69729581,442175.36136403144,4640658.402034918
157,157,EMILIO'S PRODUCE,1675623.0,298914.0,2500.0,B,2294 N MILWAUKEE AVE,60647,LOGAN SQUARE,22,1,17031221400,170312000000000.0,41.92259747,-87.69709763,442197.9659340449,4641417.307064759
158,158,EUROPA GALLERIA INC,1299537.0,253902.0,6500.0,B,340 W SUPERIOR ST,60610,NEAR NORTH SIDE,8,42,17031081800,170311000000000.0,41.89566277,-87.63722072,447140.6545224465,4638388.177945237
159,159,EXTRA VALUE FOOD & LIQUOR,1823321.0,319024.0,5000.0,B,6257 S ASHLAND AVE,60636,WEST ENGLEWOOD,67,16,17031670800,170317000000000.0,41.77961467,-87.66407749,444813.1810980687,4625520.653990069
160,160,"MY RANCH, INC.",1899688.0,20694.0,8500.0,B,4650 N SHERIDAN RD,60640,UPTOWN,3,46,17031830700,170310000000000.0,41.96697757,-87.65494464,445730.88074030075,4646317.21134128
161,161,FAIRPLAY FINER FOOD,10940.0,86481.0,10001.0,A,2200 S WESTERN AVE,60608,LOWER WEST SIDE,31,25,17031841300,170318000000000.0,41.85198384,-87.6857857,443073.2784882961,4633569.6859128615
162,162,FAIRPLAY FINER FOODS INC,10949.0,86481.0,10001.0,A,4640 S HALSTED ST,60609,NEW CITY,61,11,17031842600,170318000000000.0,41.80962977,-87.64570757,446364.8142598008,4628841.474330764
163,163,FAIRPLAY FOODS INC,10947.0,86481.0,18500.0,A,2323 W 111TH ST,60643,MORGAN PARK,75,19,17031750500,170318000000000.0,41.6916792,-87.67977917,443431.20536983054,4615767.847025514
164,164,FAIRWAY FOOD,2031993.0,352796.0,3000.0,B,2900 E 79TH ST,60649,SOUTH SHORE,43,7,17031431301,170314000000000.0,41.75200539,-87.55401542,453939.95968994347,4622390.555096429
165,165,FAMILY PRIDE,77270.0,22785.0,12500.0,A,10601 S PULASKI RD,60655,MOUNT GREENWOOD,74,19,17031740200,170317000000000.0,41.70035527,-87.7205409,440047.1975871844,4616758.670501183
166,166,FARM SUPER MARKET,2017764.0,339512.0,3000.0,B,2255 W DEVON AVE,60659,WEST RIDGE,2,50,17031020901,170310000000000.0,41.99766696,-87.68721346,443084.39152499184,4649745.577807633
167,167,FIESTA SUPERMARCADO,1196305.0,221943.0,14500.0,A,3307 W 63RD ST,60629,CHICAGO LAWN,66,15,17031660500,170317000000000.0,41.77881858,-87.70590358,441336.5632884024,4625459.956051304
168,168,FIRST CHOICE MARKET,1969290.0,342952.0,10000.0,A,3019 E 91ST ST,60617,SOUTH CHICAGO,46,10,17031461000,170315000000000.0,41.72997787,-87.55038259,454226.34814969334,4619943.024002208
169,169,FIVE STAR CERTIFIED INC,7168.0,3771.0,5000.0,B,935 W 87TH ST,60620,AUBURN GRESHAM,71,21,17031711400,170317000000000.0,41.73590841,-87.64742288,446160.71728756506,4620657.613325067
170,170,FOOD 4 LESS,1884255.0,251246.0,58000.0,A,4821 W NORTH AVE,60639,AUSTIN,25,37,17031250800,170313000000000.0,41.90950515,-87.74695994,438050.7909897005,4639998.502303182
171,171,FOOD 4 LESS,1928152.0,251246.0,63506.0,A,112 W 87TH ST,60620,CHATHAM,44,21,17031842400,170318000000000.0,41.73638005,-87.62750922,447817.1144019546,4620697.711171392
172,172,Food 4 Less Midwest,1596210.0,251246.0,62000.0,A,7030 S ASHLAND AVE,60636,WEST ENGLEWOOD,67,17,17031671500,170317000000000.0,41.76579077,-87.66396689,444810.5232265034,4623985.780402119
173,173,FOOD 4 LESS MIDWEST #789,1272529.0,251246.0,64486.0,A,4620 S DAMEN AVE,60609,NEW CITY,61,12,17031610300,170316000000000.0,41.80966853,-87.6751157,443922.07262038154,4628864.549154468
174,174,FOOD BASKET,1682475.0,291625.0,2500.0,B,7205 S HALSTED ST,60621,ENGLEWOOD,68,17,17031681300,170317000000000.0,41.7631812,-87.64421502,446450.15316137765,4623683.567735061
175,175,FOODSMART,46295.0,16644.0,3500.0,B,3415 W DIVERSEY AVE,60647,LOGAN SQUARE,22,35,17031220602,170312000000000.0,41.93185278,-87.71290125,440896.0957752926,4642455.682592972
176,176,FOODSMART,1474028.0,272175.0,13800.0,A,2901 W ARMITAGE AVE,60647,LOGAN SQUARE,22,35,17031222500,170312000000000.0,41.91735855,-87.69934107,442007.19956361066,4640837.153839746
177,177,FRESH BUY FOODS INC,23640.0,9535.0,26000.0,A,6319 S VERNON AVE,60637,WOODLAWN,42,20,17031420700,170314000000000.0,41.77966465,-87.61425094,448953.9744189402,4625495.425360192
178,178,FRESH FARMS INTERNATIONAL,30144.0,12018.0,9500.0,B,2626 W DEVON AVE,60659,WEST RIDGE,2,50,17031020602,170310000000000.0,41.99773591,-87.69592888,442362.6314202846,4649759.06314963
179,179,FRESH MARKET PLACE,1382145.0,266140.0,20000.0,A,2600 N CENTRAL AVE,60639,BELMONT CRAGIN,19,30,17031190602,170312000000000.0,41.92764768,-87.76626652,436467.58583791956,4642026.962095932
180,180,FRUTERIA EL MERCADO,21239.0,8832.0,5500.0,B,2759 S SPAULDING AVE,60623,SOUTH LAWNDALE,30,22,17031840800,170318000000000.0,41.84093316,-87.70722418,441283.56735970173,4632357.198775909
181,181,FURTERIA EL SERRANITO,2031979.0,352794.0,2500.0,B,1755 W 38TH ST,60609,MCKINLEY PARK,59,11,17031590700,170316000000000.0,41.82486062,-87.67002302,444358.2462370329,4630547.958108217
182,182,GAYTAN GROCERY STORE,85044.0,81586.0,3500.0,B,2802 S KOLIN AVE,60623,SOUTH LAWNDALE,30,22,17031301801,170313000000000.0,41.84030863,-87.73310706,439134.06776900287,4632305.87772021
183,183,GEMELOS FOOD/ CHECK CASHING SERVICES,1045757.0,203580.0,6600.0,B,4300 S MOZART ST,60632,BRIGHTON PARK,58,14,17031580502,170316000000000.0,41.815432,-87.69579779,442209.30356344464,4629518.147254984
184,184,GENE'S SAUSAGE SHOP & DELI INC,1876.0,371.0,5000.0,B,5330 W BELMONT AVE,60641,PORTAGE PARK,15,38,17031151100,170312000000000.0,41.93876197,-87.76040707,436964.3505218607,4643256.641309722
185,185,GENES SAUSAGE SHOP AT DELI MEYER,1922145.0,335302.0,6000.0,B,4746 N LINCOLN AVE,60625,LINCOLN SQUARE,4,47,17031040600,170310000000000.0,41.96775366,-87.68817172,442978.3424780446,4646424.96014553
186,186,GILMART'S  FOOD & LIQUOR,22715.0,9350.0,10001.0,A,5044 S ARCHER AVE,60632,ARCHER HEIGHTS,57,14,17031570300,170316000000000.0,41.80140003,-87.72604374,439683.99733141495,4627981.015158793
187,187,GOLDMORE FOOD,34046.0,14804.0,2500.0,B,1949 W 51ST ST,60609,NEW CITY,61,16,17031611700,170316000000000.0,41.80112781,-87.67408034,444000.6374355809,4627915.632532031
188,188,GRAND FOOD MARKET,1221783.0,223107.0,3952.0,B,5202 W GRAND AVE,60639,BELMONT CRAGIN,19,37,17031191200,170312000000000.0,41.91706775,-87.75604133,437305.02181314223,4640844.763323862
189,189,"GRAND PALACE SUPERMARKET, INC",49648.0,17200.0,3000.0,B,7131 S STATE ST,60619,GREATER GRAND CROSSING,69,6,17031691000,170317000000000.0,41.76457363,-87.62473997,448070.13105188037,4623826.221656666
190,190,"H & A FOOD MARKET, INC.",1379268.0,217567.0,2500.0,B,1007 W 63RD ST,60621,ENGLEWOOD,68,16,17031681000,170317000000000.0,41.77956458,-87.64997484,445985.1171197487,4625506.1381093
191,191,H & Z GROCERY STORE,3166.0,2823.0,10001.0,A,3638 W WRIGHTWOOD AVE,60647,LOGAN SQUARE,22,35,17031220702,170312000000000.0,41.92834525,-87.7186709,440414.4892525142,4642070.240520613
192,192,HALAL MEAT & GROCERY,55665.0,18191.0,2500.0,B,1414 W DEVON AVE,60660,ROGERS PARK,1,40,17031010600,170310000000000.0,41.99823739,-87.6661711,444827.63908279967,4649795.139814096
193,193,HAPPY FOODS,1618660.0,294177.0,11000.0,A,6783 N NORTHWEST HWY,60631,EDISON PARK,9,41,17031090200,170311000000000.0,42.00439926,-87.81848576,432219.3801178551,4650588.656824606
194,194,HAPPY FOODS,1618656.0,294177.0,11500.0,A,6415 N CENTRAL AVE,60646,FOREST GLEN,12,45,17031120200,170311000000000.0,41.99786001,-87.7634458,436770.9169687609,4649820.494294506
195,195,HARBOR MARKET,44759.0,16473.0,4200.0,B,155 N HARBOR DR,60601,LOOP,32,42,17031320100,170313000000000.0,41.88475054,-87.61560396,448925.14441592386,4637163.52894908
196,196,HAREER FOOD & LIQUOR,52337.0,17625.0,2500.0,B,5452 S HALSTED ST,60609,NEW CITY,61,20,17031612100,170316000000000.0,41.7945591,-87.64531343,446384.9912452615,4627167.995031503
197,197,HARPER FOODS,57683.0,18537.0,3300.0,B,1455 E 57TH ST,60637,HYDE PARK,41,5,17031411100,170314000000000.0,41.79141057,-87.58953263,451017.08722292236,4626785.142433499
198,198,HARVESTIME FOODS,43697.0,16317.0,8750.0,B,2632 W LAWRENCE AVE,60625,LINCOLN SQUARE,4,40,17031040201,170310000000000.0,41.96867023,-87.69516275,442399.8909556594,4646531.402609916
199,199,Hegewisch Fruit Market Inc.,2020869.0,350864.0,7800.0,B,13209 S BALTIMORE AVE,60633,HEGEWISCH,55,10,17031550100,170316000000000.0,41.65518859,-87.54699942,454454.98921904294,4611637.863963469
200,200,HILLTOP LIQUORS MART,788.0,148.0,3200.0,B,10259 S MICHIGAN AVE,60628,ROSELAND,49,9,17031490800,170315000000000.0,41.70724797,-87.62005636,448413.5922617789,4617458.852878029
201,201,HOA NOM CO,8425.0,62866.0,4200.0,B,1101 W ARGYLE ST,60640,UPTOWN,3,48,17031031200,170310000000000.0,41.9731613,-87.65783318,445496.8051861387,4647005.618736157
202,202,HOLLYWOOD TOWER MKT,1858.0,62539.0,3000.0,B,5701 N SHERIDAN RD,60660,EDGEWATER,77,48,17031030604,170310000000000.0,41.98563842,-87.65509432,445734.32266274886,4648389.204916731
203,203,HONG KONG MARKET,1892499.0,64229.0,46300.0,A,520 W 24TH PL,60616,ARMOUR SQUARE,34,25,17031841100,170318000000000.0,41.84823717,-87.64095553,446791.5211417433,4633124.956936784
204,204,"HYDE PARK PRODUCE, LTD",1884100.0,325993.0,10000.0,A,1226 E 53RD ST,60615,HYDE PARK,41,4,17031410700,170314000000000.0,41.7995768,-87.59551292,450526.47738732694,4627695.227338207
205,205,IMPERIAL TOWER MARKET,22624.0,9323.0,6031.0,B,4250 N MARINE DR,60613,UPTOWN,3,46,17031031400,170310000000000.0,41.96001995,-87.64690603,446391.1357538991,4645539.65390982
206,206,INTERNATIONAL FOODS NW INC,1129.0,215.0,14000.0,A,4404 W FULLERTON AVE,60639,HERMOSA,20,31,17031200200,170312000000000.0,41.92447264,-87.73678951,438908.5589609988,4641653.020899588
207,207,INTERNATIONAL SUPERMARKET INC,16712.0,6917.0,7500.0,B,4556 S ASHLAND AVE,60609,NEW CITY,61,3,17031610400,170316000000000.0,41.81056568,-87.66517052,444748.93595647323,4628957.714501114
208,208,J & A ORIENTAL FOOD MART,30859.0,8995.0,10001.0,A,5755 W FULLERTON AVE,60639,BELMONT CRAGIN,19,37,17031191302,170312000000000.0,41.92379935,-87.77063324,436101.6914406237,4641602.932599222
209,209,J & J EUROPEAN DELI,21936.0,63361.0,3000.0,B,5960 W LAWRENCE AVE,60630,PORTAGE PARK,15,45,17031150401,170312000000000.0,41.9677648,-87.7770202,435616.3552617153,4646489.147746712
210,210,J AND P FINER FOODS,1567.0,299.0,4500.0,B,3501 W MONTROSE AVE,60618,IRVING PARK,16,33,17031160501,170312000000000.0,41.96098859,-87.71564632,440695.5210264046,4645692.491279424
211,211,J K & S FOOD & LIQUOR,1000978.0,32337.0,3024.0,B,503 W 59TH ST,60621,ENGLEWOOD,68,20,17031834600,170318000000000.0,41.78703907,-87.63781273,447001.98583373765,4626328.428528813
212,212,J R GROCERY STORE,5644.0,3466.0,10001.0,A,505 E 134TH ST,60827,RIVERDALE,54,9,17031540101,170315000000000.0,41.65176106,-87.60936661,449259.37533089845,4611292.160248255
213,213,JAMAICA FOOD & LIQUOR INC,22679.0,9341.0,2500.0,B,4252 S COTTAGE GROVE AVE,60653,GRAND BOULEVARD,38,4,17031380100,170314000000000.0,41.81702977,-87.60685792,449597.64554589096,4629639.549846508
214,214,JARDAN FOOD & LIQUOR,11226.0,5270.0,9500.0,B,317 E GARFIELD BLVD,60637,WASHINGTON PARK,40,3,17031400400,170314000000000.0,41.79432493,-87.61852061,448610.860076181,4627125.633035874
215,215,JERUSALEM LIQUORS,440.0,80.0,4500.0,B,3133 W LAWRENCE AVE,60625,ALBANY PARK,14,33,17031140800,170311000000000.0,41.9683547,-87.70739432,441386.10725311574,4646504.665377955
216,216,JEWEL FOOD  STORE # 3345,1142451.0,259.0,60271.0,A,1224 S WABASH AVE,60605,NEAR SOUTH SIDE,33,2,17031330100,170313000000000.0,41.86672435,-87.62596115,448051.2388443318,4635168.348111501
217,217,JEWEL FOOD STORE,1953613.0,259.0,62603.0,A,11730 S MARSHFIELD AVE,60643,MORGAN PARK,75,34,17031750500,170318000000000.0,41.68033221,-87.66258468,444852.38780695514,4614496.913848838
218,218,JEWEL FOOD STORE #3030,1000572.0,259.0,31951.0,A,7530 S STONY ISLAND AVE,60649,SOUTH SHORE,43,5,17031834200,170318000000000.0,41.75780566,-87.58626826,451262.8830562258,4623052.297644579
219,219,JEWEL FOOD STORE #3043,1144384.0,259.0,37641.0,A,443 E 34TH ST,60616,DOUGLAS,35,4,17031351000,170314000000000.0,41.83304474,-87.61461136,448966.40353796683,4631422.207680499
220,220,JEWEL FOOD STORE #3057,1400.0,259.0,21785.0,A,6057 S WESTERN AVE,60636,CHICAGO LAWN,66,16,17031835000,170318000000000.0,41.78306114,-87.68359887,443193.9295677775,4625916.012594488
221,221,JEWEL FOOD STORE #3092,1411.0,259.0,10001.0,A,1655 E 95TH ST,60617,SOUTH DEERING,51,7,17031510300,170315000000000.0,41.7222632,-87.58291763,451514.69694847544,4619104.321890336
222,222,JEWEL FOOD STORE #3114,1388.0,259.0,20860.0,A,3128 W 103RD ST,60655,MOUNT GREENWOOD,74,19,17031740100,170317000000000.0,41.70631284,-87.69976712,441781.0703450168,4617405.851480217
223,223,JEWEL FOOD STORE #3139,1356.0,259.0,22295.0,A,3940 E 106TH ST,60617,EAST SIDE,52,10,17031520400,170315000000000.0,41.7028061,-87.52770401,456093.9736934892,4616914.496494712
224,224,JEWEL FOOD STORE #3170,1366.0,259.0,30374.0,A,5320 S PULASKI RD,60632,WEST ELSDON,62,23,17031620200,170316000000000.0,41.79619759,-87.72339188,439899.4407326002,4627401.551800773
225,225,JEWEL FOOD STORE #3176,1404.0,259.0,32294.0,A,9400 S ASHLAND AVE,60620,WASHINGTON HEIGHTS,73,21,17031730300,170317000000000.0,41.72294122,-87.66286287,444865.6439704021,4619227.711920873
226,226,JEWEL FOOD STORE #3181,1368.0,259.0,30745.0,A,87 W 87TH ST,60620,CHATHAM,44,21,17031842400,170318000000000.0,41.73614513,-87.62691784,447866.10306649935,4620671.270894019
227,227,JEWEL FOOD STORE #3210,1333.0,259.0,23845.0,A,1210 N CLARK ST,60610,NEAR NORTH SIDE,8,42,17031080202,170311000000000.0,41.90426523,-87.63160329,447613.67076640355,4639339.843275115
228,228,JEWEL FOOD STORE #3224,1144401.0,259.0,29299.0,A,6430 W IRVING PARK RD,60634,DUNNING,17,38,17031170100,170312000000000.0,41.95301023,-87.78770716,434715.77170995204,4644859.0457378905
229,229,JEWEL FOOD STORE #3241,1398.0,259.0,24262.0,A,1341 N PAULINA ST,60622,WEST TOWN,24,1,17031241500,170312000000000.0,41.9062437,-87.66986228,444442.1002623629,4639583.580516213
230,230,JEWEL FOOD STORE #3282,1337.0,259.0,24922.0,A,4729 N CENTRAL AVE,60630,PORTAGE PARK,15,45,17031150300,170312000000000.0,41.96679711,-87.76729948,436420.8539950996,4646374.44650907
231,231,JEWEL FOOD STORE #3296,1392.0,259.0,29421.0,A,7342 W FOSTER AVE,60656,NORWOOD PARK,10,41,17031100500,170311000000000.0,41.97454295,-87.81134688,432779.16491612204,4647268.088263906
232,232,JEWEL FOOD STORE #3302,1402.0,259.0,25431.0,A,3644 S ARCHER AVE,60609,MCKINLEY PARK,59,11,17031590500,170316000000000.0,41.8275839,-87.68245444,443328.2810092706,4630858.439755405
233,233,JEWEL FOOD STORE #3344,1192905.0,259.0,63407.0,A,1220 S ASHLAND AVE,60608,NEAR WEST SIDE,28,2,17031842900,170318000000000.0,41.86625418,-87.66652414,444684.4787321409,4635141.488316426
234,234,JEWEL FOOD STORE #3349,1353385.0,259.0,64285.0,A,2520 N NARRAGANSETT AVE,60639,BELMONT CRAGIN,19,36,17031831500,170318000000000.0,41.92629696,-87.78569482,434855.36852648604,4641891.571958332
235,235,JEWEL FOOD STORE #3368,1226337.0,259.0,31600.0,A,550 N STATE ST,60610,NEAR NORTH SIDE,8,42,17031081600,170311000000000.0,41.89242137,-87.62823487,447883.42559891136,4638022.796167409
236,236,JEWEL FOOD STORE #3407,1394.0,259.0,19238.0,A,5516 N CLARK ST,60640,EDGEWATER,77,40,17031030900,170310000000000.0,41.98218988,-87.66865163,444608.28891109274,4648014.994530578
237,237,JEWEL FOOD STORE #3441,1375.0,259.0,22443.0,A,2940 N ASHLAND AVE,60657,LAKE VIEW,6,32,17031062600,170311000000000.0,41.93547203,-87.66865454,444567.5733106358,4642827.966238718
238,238,JEWEL FOOD STORE #3442,1406.0,259.0,29060.0,A,4042 W FOSTER AVE,60630,NORTH PARK,13,39,17031130200,170311000000000.0,41.97562411,-87.72984456,439532.77122510475,4647327.385656984
239,239,JEWEL FOOD STORE #3443,1323.0,259.0,25356.0,A,5343 N BROADWAY,60640,EDGEWATER,77,48,17031030703,170310000000000.0,41.97942825,-87.65980585,445338.7229720289,4647702.690013791
240,240,JEWEL FOOD STORE #3454,1325.0,259.0,25490.0,A,4250 N LINCOLN AVE,60618,NORTH CENTER,5,47,17031050200,170311000000000.0,41.95910043,-87.68239224,443449.57897673565,4645460.370357332
241,241,JEWEL FOOD STORE #3455,1380.0,259.0,23660.0,A,4355 N SHERIDAN RD,60613,UPTOWN,3,46,17031032100,170310000000000.0,41.96139778,-87.65459297,445755.28753134835,4645697.470479309
242,242,JEWEL FOOD STORE #3470,1382.0,259.0,24815.0,A,3570 N ELSTON AVE,60618,AVONDALE,21,35,17031831100,170318000000000.0,41.9460576,-87.70823011,441296.39410340996,4644029.614134946
243,243,JEWEL FOOD STORE #3477,1372.0,259.0,17676.0,A,4734 N CUMBERLAND AVE,60656,OHARE,76,36,17031760802,170318000000000.0,41.9660114,-87.83683117,430658.4993706085,4646341.146029704
244,244,JEWEL FOOD STORE #3501,1192909.0,259.0,56010.0,A,3400 N WESTERN AVE,60618,NORTH CENTER,5,47,17031843700,170318000000000.0,41.94318737,-87.68830202,442945.6385240906,4643697.479797703
245,245,JEWEL FOOD STORE #3514,1385.0,259.0,20285.0,A,3531 N BROADWAY,60657,LAKE VIEW,6,46,17031061800,170311000000000.0,41.94638465,-87.64652486,446411.3024838194,4644025.505734447
246,246,JEWEL FOOD STORE #3721,1225534.0,259.0,49513.0,A,6107 S ARCHER AVE,60638,GARFIELD RIDGE,56,23,17031560800,170316000000000.0,41.79435485,-87.77052715,435981.5069465675,4627230.988147876
247,247,JEWEL FOOD STORES #3262,1409.0,259.0,35000.0,A,4660 W IRVING PARK RD,60641,PORTAGE PARK,15,45,17031831700,170318000000000.0,41.95355444,-87.74505531,438251.253552324,4644887.857143594
248,248,JEWEL-OSCO #3632,2037181.0,259.0,62349.0,A,3630 N SOUTHPORT AVE,60613,LAKE VIEW,6,44,17031060400,170311000000000.0,41.94800455,-87.66418623,444948.78598564654,4644216.554037203
249,249,JOE'S FOOD & LIQUOR,822.0,154.0,3500.0,B,3626 W LAWRENCE AVE,60625,ALBANY PARK,14,39,17031140301,170311000000000.0,41.96844525,-87.71941658,440390.03522899066,4646523.013915433
250,250,JOE'S FOOD AND LIQUOR DEPOT,1575140.0,286898.0,4000.0,B,5834 W FULLERTON AVE,60639,BELMONT CRAGIN,19,30,17031190602,170312000000000.0,41.92399183,-87.77228911,435964.5838537703,4641625.53861726
251,251,JOLANTA'S INTERNATIONAL DELI,26376.0,10856.0,10001.0,A,5914 W HIGGINS AVE,60630,JEFFERSON PARK,11,45,17031110400,170311000000000.0,41.9727915,-87.77637186,435675.13458662084,4647046.772084289
252,252,JOSEPH FOOD MART,6157.0,62754.0,3000.0,B,8235 W IRVING PARK RD,60634,DUNNING,17,36,17031170500,170312000000000.0,41.95201856,-87.83316684,430947.02938159293,4644784.571248289
253,253,K & K FOOD & LIQUOR,62092.0,23937.0,4200.0,B,1130 W 51ST ST,60609,NEW CITY,61,16,17031611000,170316000000000.0,41.80157684,-87.65378847,445686.77632849885,4627952.465326939
254,254,K BUENA,1999075.0,65396.0,3500.0,B,4322 W MARQUETTE RD,60629,WEST LAWN,65,13,17031650301,170317000000000.0,41.77138332,-87.73095337,439247.795460952,4624651.844604369
255,255,KAMDAR PLAZA INC,4429.0,3241.0,5500.0,B,2646 W DEVON AVE,60659,WEST RIDGE,2,50,17031020602,170310000000000.0,41.9977219,-87.6966411,442303.6318433391,4649757.987283712
256,256,"Kan-Zaman Mart, Inc.",1119908.0,209575.0,4600.0,B,2005 S MICHIGAN AVE,60616,NEAR SOUTH SIDE,33,2,17031330100,170313000000000.0,41.85531767,-87.62372652,448227.4919180948,4633900.5500457045
257,257,KAPS FOODS,57817.0,18562.0,4100.0,B,3557 S CALIFORNIA AVE,60632,BRIGHTON PARK,58,12,17031580100,170316000000000.0,41.82838364,-87.69462017,442318.7386750528,4630955.328850975
258,258,KEY FOOD LIQUOR,17551.0,7109.0,3800.0,B,13355 S INDIANA AVE,60827,RIVERDALE,54,9,17031540101,170315000000000.0,41.65197282,-87.61708374,448616.9521556917,4611320.241440687
259,259,KHALIL FOOD & LIQUOR,46846.0,16717.0,3000.0,B,146 W 103RD ST,60628,ROSELAND,49,9,17031490700,170315000000000.0,41.70721814,-87.62775156,447773.3528201101,4617460.179475661
260,260,KING FOOD & LIQUOR,40321.0,2926.0,3750.0,B,6858 S HALSTED ST,60621,ENGLEWOOD,68,6,17031681100,170317000000000.0,41.7689263,-87.644656,446418.27741186344,4624321.692781058
261,261,KOL TUV KOSHER FOODS INC,12952.0,6158.0,3000.0,B,2938 W DEVON AVE,60659,WEST RIDGE,2,50,17031020601,170310000000000.0,41.99760128,-87.70361267,441726.12776181026,4649749.315945038
262,262,KORDIAN'S MARKET,28114.0,11448.0,4610.0,B,6332 W HIGGINS AVE,60630,JEFFERSON PARK,11,45,17031110300,170311000000000.0,41.97598405,-87.78656131,434834.15542890143,4647408.940471535
263,263,"KRAKUS DELI,  INC",1222467.0,229704.0,3500.0,B,5155 W ADDISON ST,60641,PORTAGE PARK,15,38,17031151001,170312000000000.0,41.9458951,-87.75664585,437283.138211712,4644045.865147722
264,264,LA CASA DEL PUEBLO INC,31675.0,14392.0,10001.0,A,1810 S BLUE ISLAND AVE,60608,LOWER WEST SIDE,31,25,17031310600,170313000000000.0,41.85745275,-87.66168833,445078.27812384546,4634161.1872668
265,265,LA CIENEGA SUPER FOOD INC,65173.0,20310.0,10000.0,A,10736 S EWING AVE,60617,EAST SIDE,52,10,17031520300,170315000000000.0,41.69981485,-87.53542689,455449.3478737752,4616586.363109812
266,266,LA FERIA GROCERY,26609.0,11067.0,10001.0,A,9704 S COMMERCIAL AVE,60617,SOUTH DEERING,51,10,17031510100,170315000000000.0,41.71891216,-87.5511743,454152.6377503854,4618714.884770143
267,267,LA GUERRERENSE,67114.0,43885.0,3000.0,B,4149 W ARMITAGE AVE,60639,HERMOSA,20,30,17031831200,170318000000000.0,41.917,-87.73098926,439382.42146108905,4640819.230195352
268,268,LA INTERNATIONAL,57700.0,18542.0,3000.0,B,4301 S ARCHER AVE,60632,BRIGHTON PARK,58,14,17031580502,170316000000000.0,41.81530069,-87.7020416,441690.5910311661,4629507.786391796
269,269,LA JALISCIENCE,4749.0,23661.0,3000.0,B,3239 W 26TH ST,60623,SOUTH LAWNDALE,30,22,17031840800,170318000000000.0,41.84438799,-87.7064971,441347.08798621694,4632740.280503575
270,270,"LA LOMA ""CARNICERIA Y TAQUERIA""",49880.0,17241.0,4501.0,B,2535 N LARAMIE AVE,60639,BELMONT CRAGIN,19,31,17031190800,170312000000000.0,41.92703609,-87.75610618,437309.4028673338,4641951.579553702
271,271,LA MERCED INC,6834.0,3685.0,10001.0,A,4335 W 26TH ST,60623,SOUTH LAWNDALE,30,22,17031301801,170313000000000.0,41.8440328,-87.73243286,439193.5694905689,4632718.882866163
272,272,"LA NUEVA IMAGEN GROCERY, INC.",1804216.0,315282.0,3000.0,B,2459 S MILLARD AVE,60623,SOUTH LAWNDALE,30,22,17031300600,170313000000000.0,41.8462971,-87.71591643,440566.8640057063,4632958.718741956
273,273,LA PERLA TAPATIA BAKERY,1698.0,85292.0,3000.0,B,4214 W NORTH AVE,60639,HUMBOLDT PARK,23,30,17031230500,170312000000000.0,41.90991975,-87.73197126,439294.2792251115,4640033.817583563
274,274,LA PLAMA,22662.0,63389.0,15000.0,A,4173 S ARCHER AVE,60632,BRIGHTON PARK,58,14,17031580501,170316000000000.0,41.81757931,-87.69832059,442001.7043204155,4629758.2547121765
275,275,LA PROVIDENCIA FOOD MART,16986.0,6991.0,2572.0,B,1658 W 21ST ST,60608,LOWER WEST SIDE,31,25,17031310800,170313000000000.0,41.85421937,-87.66845816,444513.5683336961,4633806.547671316
276,276,"LA UNICA FOOD MART, INC.",491.0,90.0,5000.0,B,1515 W DEVON AVE,60660,EDGEWATER,77,40,17031030200,170310000000000.0,41.99799346,-87.66842789,444640.51917166554,4649769.512967146
277,277,LAKE VIEW FOODS INC,2055.0,408.0,3100.0,B,4106 N SHERIDAN RD,60613,UPTOWN,3,46,17031032100,170310000000000.0,41.9570403,-87.65476289,445737.5098191005,4645213.772088032
278,278,L'APPETITO,42672.0,16220.0,2900.0,B,875 N MICHIGAN AVE,60611,NEAR NORTH SIDE,8,42,17031081300,170311000000000.0,41.89894854,-87.62397499,448242.08511130663,4638744.913209806
279,279,LARAMIE BAKERY & DELI,2014141.0,350093.0,12331.0,A,3232 N HARLEM AVE,60634,DUNNING,17,36,17031170800,170312000000000.0,41.93898597,-87.80692906,433108.0130252539,4643316.76777356
280,280,"LATIN GROCERY & LIQUOR, INC",20046.0,8064.0,10001.0,A,3800 W NORTH AVE,60647,HUMBOLDT PARK,23,30,17031230400,170312000000000.0,41.91004942,-87.72145808,440166.3114630436,4640040.827249641
281,281,LAWNDALE FOOD MARKET,39529.0,15829.0,6000.0,B,3705 W 16TH ST,60623,NORTH LAWNDALE,29,24,17031292200,170313000000000.0,41.85883397,-87.71786719,440416.553746905,4634352.0012748195
282,282,Laxi Liquor,47780.0,11112.0,3200.0,B,6922 W GRAND AVE,60707,MONTCLARE,18,36,17031831600,170318000000000.0,41.9236807,-87.79867613,433776.3307474018,4641611.036494759
283,283,LEMEN SUN CORP.,28022.0,11427.0,3600.0,B,2832 S WENTWORTH AVE,60616,ARMOUR SQUARE,34,11,17031340400,170313000000000.0,41.84160448,-87.6319155,447536.55797069956,4632382.9902498815
284,284,LINDO MICHOACAN,42744.0,86194.0,8600.0,B,3142 W LAWRENCE AVE,60625,ALBANY PARK,14,33,17031140100,170311000000000.0,41.96857277,-87.7077877,441353.7120765165,4646529.146708592
285,285,LOGAN CERTIFIED FOODS CORP,1046303.0,23391.0,4500.0,B,2857 W DIVERSEY AVE,60647,LOGAN SQUARE,22,35,17031220400,170312000000000.0,41.93197047,-87.69993162,441971.470534769,4642459.889940256
286,286,LORETO GROCERY,76774.0,22681.0,4499.0,B,4600 S FAIRFIELD AVE,60632,BRIGHTON PARK,58,12,17031842800,170318000000000.0,41.81000148,-87.69318135,442421.75432667154,4628913.461261517
287,287,LOS CUATRO HERMANOS GROCERY,7790.0,62837.0,10001.0,A,1858 S ALLPORT ST,60608,LOWER WEST SIDE,31,25,17031310600,170313000000000.0,41.85620222,-87.65774497,445404.5244889611,4634019.829904463
288,288,LOS POTRILLOS,1650212.0,299177.0,7000.0,B,3624 W BELMONT AVE,60618,AVONDALE,21,35,17031831100,170318000000000.0,41.93930952,-87.71853994,440435.5500835022,4643287.496194272
289,289,LOS SAUCES GROCERY,1223250.0,230035.0,2800.0,B,5852 W DIVERSEY AVE,60639,BELMONT CRAGIN,19,30,17031190402,170312000000000.0,41.9312882,-87.77324145,435892.9244415938,4642436.35565237
290,290,LUCIANO'S GROCERY-18TH ST,1380524.0,265429.0,6000.0,B,1714 W 18TH ST,60608,LOWER WEST SIDE,31,25,17031310800,170313000000000.0,41.85785657,-87.6694196,444436.91045285616,4634210.996463501
291,291,LUX 2 FOOD & LIQUOR,1869021.0,322813.0,2500.0,B,7550 S MAY ST,60620,AUBURN GRESHAM,71,17,17031710200,170317000000000.0,41.7561627,-87.6528196,445728.9876010695,4622909.731078506
292,292,M & D VARIETY STORE,18355.0,7524.0,4500.0,B,1300 W 111TH ST,60643,MORGAN PARK,75,34,17031750100,170318000000000.0,41.69231963,-87.65466321,445521.8171172803,4615822.760605555
293,293,M & J LIQUOR & GROCERY,15168.0,6639.0,2900.0,B,3654 W LAWRENCE AVE,60625,ALBANY PARK,14,39,17031140301,170311000000000.0,41.96843458,-87.72048101,440301.8274179751,4646522.570382245
294,294,MACIAS PRODUCE INC.,1648017.0,297549.0,7000.0,B,8933 S COMMERCIAL AVE,60617,SOUTH CHICAGO,46,10,17031833900,170318000000000.0,41.73273359,-87.55117278,454162.58936866734,4620249.39622743
295,295,MAKOLA AFRICAN SUPERMARKET #2,2008279.0,279945.0,3500.0,B,4501 N SHERIDAN RD,60640,UPTOWN,3,46,17031031502,170310000000000.0,41.96365028,-87.65462219,445754.7767803622,4645947.581594068
296,296,MANDY'S LIQUOR,17168.0,7030.0,3000.0,B,1957 W LAWRENCE AVE,60640,LINCOLN SQUARE,4,47,17031830800,170318000000000.0,41.96865614,-87.67843848,443785.63274012407,4646518.7295372365
297,297,MARIO 'S BUTCHER SHOP FD CNTR,4248.0,85432.0,10001.0,A,5817 W MADISON ST,60644,AUSTIN,25,29,17031252101,170313000000000.0,41.88004498,-87.77049338,436069.65568563517,4636744.865796177
298,298,MARKET IN THE PARK,1334026.0,258947.0,5049.0,B,5050 S LAKE SHORE DR,60615,KENWOOD,39,4,17031390700,170314000000000.0,41.80287978,-87.58184369,451664.5650212073,4628054.165762325
299,299,MA'S & PA'S GROCERY SNACK SHOP,7302.0,3806.0,4500.0,B,804 S CALIFORNIA AVE,60612,EAST GARFIELD PARK,27,2,17031271800,170313000000000.0,41.87087764,-87.69616688,442228.5472337718,4635674.343582382
300,300,MAYFAIR MARKET PLACE,1948869.0,340165.0,12000.0,A,4728 N PULASKI RD,60630,ALBANY PARK,14,39,140500,170311000000000.0,41.96726667,-87.72814705,439665.5230233807,4646398.26840253
301,301,MAYFLOWER FOOD,1168793.0,17975.0,6000.0,B,2104 S ARCHER AVE,60616,ARMOUR SQUARE,34,25,17031841100,170318000000000.0,41.8542653,-87.63218951,447524.1568266819,4633788.8462135615
302,302,MEHRAB ZABIHA MEAT & TOBACCO,1094121.0,207539.0,3000.0,B,2445 W DEVON AVE,60659,WEST RIDGE,2,50,17031020802,170310000000000.0,41.99759202,-87.69166812,442715.38364540244,4649740.227837537
303,303,MELISSA'S FOOD & LIQUORS INC,29494.0,11681.0,3500.0,B,3867 W GRAND AVE,60651,HUMBOLDT PARK,23,27,17031230700,170312000000000.0,41.90505945,-87.72395138,439954.85396103683,4639488.543006378
304,304,MI MEXICO GROCERY,1494240.0,277614.0,2600.0,B,2601 W 59TH ST,60629,CHICAGO LAWN,66,16,17031835000,170318000000000.0,41.78637634,-87.68877651,442766.62137026654,4626287.518212922
305,305,MIARA'S CONT'L PASTRY DELI INC,10400.0,4623.0,5000.0,B,7051 W ADDISON ST,60634,DUNNING,17,36,17031171000,170312000000000.0,41.94523382,-87.80292664,433446.30182427657,4644007.34430021
306,306,MICELI'S DELI & FOOD MART,44924.0,16493.0,4000.0,B,2448 S OAKLEY AVE,60608,LOWER WEST SIDE,31,25,17031841300,170318000000000.0,41.84702046,-87.68319955,443283.5704073916,4633016.906387729
307,307,MICHAELS FRESH MARKET,2043177.0,354856.0,41000.0,A,1300 E 47TH ST,60653,KENWOOD,39,4,17031390100,170314000000000.0,41.80977273,-87.59496089,450580.17463325383,4628826.920466846
308,308,MID TOWN FOODS,39968.0,15264.0,3520.0,B,3855 W DIVISION ST,60651,HUMBOLDT PARK,23,27,17031231200,170312000000000.0,41.90258387,-87.72361925,439980.08269954874,4639213.451972838
309,309,MINI MERCADO LA BETANIA,33473.0,3205.0,2640.0,B,2800 S TRIPP AVE,60623,SOUTH LAWNDALE,30,22,17031301803,170313000000000.0,41.84039654,-87.73067501,439336.0720494706,4632313.917434085
310,310,MLB FOOD,1884977.0,326392.0,2500.0,B,613 E 67TH ST,60637,WOODLAWN,42,20,17031421200,170314000000000.0,41.7729559,-87.61005781,449297.15330406197,4624748.104202284
311,311,MOO & OINK INC,11915.0,5928.0,21500.0,A,4848 W MADISON ST,60644,AUSTIN,25,28,17031251800,170313000000000.0,41.88058389,-87.74705294,438015.1185407323,4636787.503942486
312,312,"MORELIA SUPERMARKET #2, INC.",1648410.0,298039.0,12000.0,A,4833 W DIVERSEY AVE,60639,BELMONT CRAGIN,19,31,17031190800,170312000000000.0,41.93140629,-87.74793697,437990.968798946,4642430.855746468
313,313,"MORELIA SUPERMARKET, INC.",1892862.0,243702.0,8000.0,B,7300 N WESTERN AVE,60645,WEST RIDGE,2,50,17031020200,170310000000000.0,42.01418398,-87.69037835,442837.05955463473,4651581.568206329
314,314,MORGAN FOOD CORP LLC,1270949.0,250439.0,3500.0,B,6600 S MORGAN ST,60621,ENGLEWOOD,68,17,17031681000,170317000000000.0,41.77412895,-87.649646,446007.88585377386,4624902.4389299285
315,315,MOROLEON FOODS #2 INC.,1801622.0,314329.0,3025.0,B,4257 S ROCKWELL ST,60632,BRIGHTON PARK,58,12,17031580700,170316000000000.0,41.81577112,-87.6893859,442742.1592236469,4629551.506140899
316,316,MORSE FOOD AND MEAT MARKET,1518304.0,280735.0,17000.0,A,1430 W MORSE AVE,60626,ROGERS PARK,1,49,17031010600,170310000000000.0,42.00799492,-87.66717415,444753.0081163763,4650879.162393214
317,317,MOUNSEF INTERNATIONAL,21126.0,86704.0,10001.0,A,4738 N KEDZIE AVE,60625,ALBANY PARK,14,33,17031140701,170311000000000.0,41.96779309,-87.7086027,441285.4659821569,4646443.137708551
318,318,MR G'S FOOD & LIQUOR,1429.0,263.0,3000.0,B,332 E 58TH ST,60637,WASHINGTON PARK,40,20,17031400400,170314000000000.0,41.78942986,-87.61784034,448663.4740953506,4626581.748764947
319,319,MUNCHIES ON LARRABEE,2073925.0,210118.0,2500.0,B,1012 N LARRABEE ST,60610,NEAR NORTH SIDE,8,27,17031842200,170318000000000.0,41.90084859,-87.64325554,446644.3630148683,4638967.683004642
320,320,Municipal Foods,1478386.0,273724.0,9980.0,B,2559 W DIVISION ST,60622,WEST TOWN,24,26,17031242500,170312000000000.0,41.90285923,-87.69188858,442612.214210392,4639222.31068511
321,321,NANCE FOOD MART,4756.0,3277.0,4500.0,B,10935 S WENTWORTH AVE,60628,ROSELAND,49,34,17031491000,170315000000000.0,41.69515316,-87.62782024,447757.8742514455,4616120.72075498
322,322,NANCY FOODS INC,79959.0,23327.0,2500.0,B,12315 S STATE ST,60628,WEST PULLMAN,53,9,17031530600,170315000000000.0,41.6702524,-87.62227196,448199.5917494238,4613352.801688267
323,323,NATIONAL FRUIT STOP,23627.0,9531.0,3000.0,B,3523 W LAWRENCE AVE,60625,ALBANY PARK,14,33,17031140701,170311000000000.0,41.96825564,-87.71687738,440600.2552207593,4646500.198088132
324,324,Natural Country Deli,2017781.0,350688.0,3500.0,B,6452 N MILWAUKEE AVE,60631,NORWOOD PARK,10,41,17031100200,170311000000000.0,41.99849297,-87.78909537,434647.2362929828,4649910.030718954
325,325,NAYAB MART,1444872.0,269649.0,3125.0,B,2449 W DEVON AVE,60659,WEST RIDGE,2,50,17031020802,170310000000000.0,41.99758912,-87.69183691,442701.40162192093,4649740.018786656
326,326,NEIL'S FOOD,1998505.0,221849.0,3500.0,B,7749 S HALSTED ST,60620,AUBURN GRESHAM,71,17,17031710100,170317000000000.0,41.75283042,-87.64395052,446463.53746355727,4622534.2081136815
327,327,NEW LA ESTRELLA FOODS INC.,2003267.0,348383.0,5800.0,B,3003 W 63RD ST,60629,CHICAGO LAWN,66,15,17031660600,170317000000000.0,41.77893156,-87.69841709,441958.8262422266,4625467.419521891
328,328,NEW POP-IN,1719179.0,306063.0,8784.0,B,413 S KEDZIE AVE,60612,EAST GARFIELD PARK,27,28,17031271200,170313000000000.0,41.87542375,-87.70582036,441431.59864926606,4636185.628183004
329,329,NICKEL LIQUOR & MINI MART INC,22084.0,9178.0,10001.0,A,3637 W DIVISION ST,60651,HUMBOLDT PARK,23,27,17031231200,170312000000000.0,41.90263376,-87.71793124,440451.91841542785,4639215.027117629
330,330,NOOR MEAT,61680.0,19506.0,3000.0,B,2505 W DEVON AVE,60659,WEST RIDGE,2,50,17031020802,170310000000000.0,41.99757381,-87.6925486,442642.4447171624,4649738.795407845
331,331,NORTHWEST FOOD & LIQUOR,1119636.0,209419.0,3180.0,B,5170 W NORTH AVE,60639,AUSTIN,25,37,17031250200,170313000000000.0,41.9096149,-87.75547797,437344.45004848245,4640016.874886664
332,332,"OGIES FOOD, INC",26972.0,11210.0,10001.0,A,2600 W LITHUANIAN PLAZA CT,60629,CHICAGO LAWN,66,15,17031660900,170317000000000.0,41.76836584,-87.68830091,442790.1362655517,4624287.577852764
333,333,OHIO FOOD MART,1225367.0,243092.0,3500.0,B,5345 W OHIO ST,60644,AUSTIN,25,37,17031251500,170313000000000.0,41.89104929,-87.75973284,436973.3154761792,4637958.689343272
334,334,OLD WORLD MARKET,7507.0,3851.0,10001.0,A,5129 N BROADWAY,60640,UPTOWN,3,48,17031031200,170310000000000.0,41.9754754,-87.65969701,445344.35986267036,4647263.738765059
335,335,OLIVE MOUNT MART,1337266.0,205718.0,3000.0,B,3536 W 63RD ST,60629,CHICAGO LAWN,66,15,17031660400,170317000000000.0,41.77894012,-87.71186857,440840.9573491634,4625477.536602092
336,336,ONE STOP,2032029.0,352811.0,2500.0,B,4401 W MADISON ST,60624,WEST GARFIELD PARK,26,28,17031260500,170313000000000.0,41.88049945,-87.73559596,438965.65876515023,4636769.917308383
337,337,ONE STOP FOOD & LIQUOR STORE,1094.0,205.0,58000.0,A,4301 S LAKE PARK AVE,60653,KENWOOD,39,4,17031390100,170314000000000.0,41.81686515,-87.59868884,450276.00085496524,4629616.513351427
338,338,ORIENTAL ASIA MARKET INC.,1903198.0,330517.0,7500.0,B,4932 N SHERIDAN RD,60640,UPTOWN,3,46,17031031200,170310000000000.0,41.97255593,-87.65505767,445726.2505640724,4646936.642943561
339,339,ORLEANS MARKET,23467.0,9485.0,3002.0,B,316 W ILLINOIS ST,60610,NEAR NORTH SIDE,8,42,17031081800,170311000000000.0,41.89086429,-87.63632919,447210.658772486,4637854.865638741
340,340,OSAMA FOOD MART,2031620.0,352625.0,2800.0,B,615 E 67TH ST,60637,WOODLAWN,42,20,17031421200,170314000000000.0,41.77295752,-87.6099734,449304.1700555091,4624748.234302656
341,341,OUTLET KINGDOM,2054475.0,356046.0,4000.0,B,3449 S HALSTED ST,60608,BRIDGEPORT,60,11,17031839700,170318000000000.0,41.83107494,-87.64597111,446360.82360252884,4631222.613811632
342,342,P & I FOOD & LIQUOR INC.,16647.0,6907.0,3000.0,B,4154 W DIVISION ST,60651,HUMBOLDT PARK,23,37,17031230600,170312000000000.0,41.90270681,-87.73101807,439366.5072169035,4639232.304887578
343,343,PAR BIRDIE FOODS,28222.0,11464.0,6000.0,B,2234 W DEVON AVE,60659,WEST RIDGE,2,50,17031020500,170310000000000.0,41.99790097,-87.68637822,443153.77544193005,4649771.005015135
344,344,"PARK FOODS OF 71ST STREET,INC.",1677517.0,300221.0,3500.0,B,2612 W 71ST ST,60629,CHICAGO LAWN,66,18,17031660900,170317000000000.0,41.76471714,-87.68875098,442749.4835278152,4623882.77950728
345,345,"PARK PACKING OF CHICAGO, INC.",2008956.0,340517.0,3500.0,B,1544 W 41ST ST,60609,NEW CITY,61,11,17031842600,170318000000000.0,41.81915944,-87.66423536,444833.9887653282,4629911.245400605
346,346,PARKSHORE MARKET LTD,26464.0,10858.0,2860.0,B,195 N HARBOR DR,60601,LOOP,32,42,17031320100,170313000000000.0,41.88617728,-87.6155996,448926.6425036809,4637321.933501265
347,347,PATEL BROS,25338.0,88729.0,5000.0,B,2610 W DEVON AVE,60659,WEST RIDGE,2,50,17031020602,170310000000000.0,41.9977473,-87.69525116,442418.7712774251,4649759.87180812
348,348,PAULINA MARKET,1680919.0,301699.0,10000.0,A,3501 N LINCOLN AVE,60657,LAKE VIEW,6,32,17031831900,,41.94525416,-87.67238979,444266.4332736386,4643916.483656305
349,349,PAULINA SUPER MARKET INC,4851.0,3286.0,7000.0,B,7622 N PAULINA ST,60626,ROGERS PARK,1,49,17031010100,170310000000000.0,42.02008732,-87.67323456,444261.7181120736,4652225.7096039
350,350,PEORIA PACKING LTD,33970.0,14795.0,8000.0,B,1300 W LAKE ST,60607,NEAR WEST SIDE,28,27,17031833000,170318000000000.0,41.88558042,-87.65895691,445328.9678341532,4637282.379461781
351,351,PERSONAL LIQUORS INC,8913.0,4189.0,6000.0,B,4241 W MADISON ST,60624,WEST GARFIELD PARK,26,28,17031260600,170313000000000.0,41.8805392,-87.73221604,439246.13900983107,4636771.9324361235
352,352,PETERSON FOOD MART,1272746.0,251347.0,2500.0,B,2534 W PETERSON AVE,60659,WEST RIDGE,2,50,17031020802,170310000000000.0,41.99058521,-87.69353452,442554.5051305817,4648963.514786883
353,353,PETE'S FRESH MARKET,1598145.0,292834.0,50000.0,A,3448 E 118TH ST,60617,HEGEWISCH,55,10,17031550100,170316000000000.0,41.68105956,-87.53936754,455108.42379638157,4614506.132422867
354,354,PETE'S FRESH SUPERMARKET,1771242.0,312119.0,75000.0,A,2526 W CERMAK RD,60608,SOUTH LAWNDALE,30,28,17031840700,170318000000000.0,41.85210065,-87.68905111,442802.32108058594,4633584.824908593
355,355,PETE'S MARKET,36823.0,15303.0,10001.0,A,5724 S KEDZIE AVE,60629,GAGE PARK,63,14,17031630900,170316000000000.0,41.78911255,-87.70357973,441539.0377050824,4626601.267710568
356,356,PETE'S MEAT & GROCERY #2,1646096.0,296662.0,7500.0,B,2001 W 71ST ST,60636,WEST ENGLEWOOD,67,17,17031672000,170317000000000.0,41.76469612,-87.67359278,444009.45535466645,4623870.467750935
357,357,PETE'S PRODUCE,1476553.0,273114.0,5000.0,B,1543 E 87TH ST,60619,CALUMET HEIGHTS,48,8,17031480200,170315000000000.0,41.73679546,-87.58627251,451246.6363858507,4620719.650532454
358,358,PETE'S PRODUCE,1448266.0,271341.0,10000.0,A,1411 W 87TH ST,60620,AUBURN GRESHAM,71,21,17031711400,170317000000000.0,41.73574485,-87.65871771,445221.30253852136,4620646.581472182
359,359,POLONIA FOOD MART,6455.0,3630.0,10001.0,A,1956 W ARMITAGE AVE,60622,LOGAN SQUARE,22,32,17031832300,170318000000000.0,41.91787072,-87.67748062,443820.4341858006,4640879.467640227
360,360,POTASH BROS INC,19826.0,8018.0,10001.0,A,875 N STATE ST,60610,NEAR NORTH SIDE,8,42,17031081201,170311000000000.0,41.8988782,-87.62811115,447898.93732701737,4638739.607135522
361,361,POTASH BROS. SUPERMARKET,164.0,21.0,12000.0,A,1525 N CLARK ST,60610,NEAR NORTH SIDE,8,42,17031080201,170311000000000.0,41.91011794,-87.63149089,447627.77733709064,4639989.588117538
362,362,PRESTIGE LIQUORS,1883995.0,325934.0,2900.0,B,7104 S WESTERN AVE,60636,CHICAGO LAWN,66,18,17031661000,170317000000000.0,41.7644956,-87.68338427,443195.38344549714,4623854.62491275
363,363,PUERTO RICO FOOD & LIQUORS,2033049.0,353309.0,2500.0,B,2559 W AUGUSTA BLVD,60622,WEST TOWN,24,26,17031242500,170312000000000.0,41.89922158,-87.69173812,442621.43734579394,4638818.329678005
364,364,QUALITY FOOD ON 71 ST INC,76481.0,22614.0,3000.0,B,2557 W 71ST ST,60629,CHICAGO LAWN,66,18,17031661000,170317000000000.0,41.76451168,-87.68798666,442812.8334082855,4623859.459832337
365,365,QUICK STOP FOOD MART,39791.0,3604.0,3000.0,B,2751 W PRATT BLVD,60645,WEST RIDGE,2,50,17031020601,170310000000000.0,42.00475007,-87.69942278,442079.62411944213,4650540.201390765
366,366,QUINTESSENCE,2033012.0,350756.0,3000.0,B,1532 N PULASKI RD,60651,HUMBOLDT PARK,23,30,17031230600,170312000000000.0,41.90910776,-87.72663415,439736.1490090977,4639939.900285965
367,367,"R & S DISCOUNT FOOD, WINE, & LIQUOR",8647.0,4130.0,2800.0,B,2425 W DIVERSEY AVE,60647,LOGAN SQUARE,22,1,17031830900,170318000000000.0,41.93204685,-87.68897869,442879.6070803779,4642461.015012774
368,368,RAINBOW FINER FOOD & LIQUOR,9138.0,4236.0,3500.0,B,6316 S ASHLAND AVE,60636,WEST ENGLEWOOD,67,16,17031671200,170317000000000.0,41.77892241,-87.66435268,444789.7180818237,4625443.972176523
369,369,RAINBOW GROCERY,61801.0,19562.0,2500.0,B,2003 W 69TH ST,60636,WEST ENGLEWOOD,67,17,17031671500,170317000000000.0,41.76832833,-87.67381938,443993.77890811855,4624273.882136523
370,370,"RICH'S DELI & LIQUOR, INC",16735.0,6920.0,3400.0,B,857 N WESTERN AVE,60622,WEST TOWN,24,32,17031242400,170312000000000.0,41.89746098,-87.68673856,443034.5802707757,4638619.5224661
371,371,RICHWELL MARKET,1070189.0,205927.0,7500.0,B,1835 S CANAL ST,60616,LOWER WEST SIDE,31,25,17031843200,170318000000000.0,41.85665718,-87.63875335,446981.2884324051,4634058.441263763
372,372,RIGO'S GROCERY,1144306.0,215370.0,2500.0,B,2858 S LAWNDALE AVE,60623,SOUTH LAWNDALE,30,22,17031301702,170313000000000.0,41.83893675,-87.71723055,440450.94480153016,4632142.433105882
373,373,"RIO GRANDE FRUIT MARKET, INC.",1042285.0,201574.0,3750.0,B,3501 W NORTH AVE,60647,HUMBOLDT PARK,23,26,17031230800,170312000000000.0,41.90991071,-87.71438551,440752.7458489333,4640020.516969269
374,374,RITE PRICE FOOD,1198136.0,222688.0,3600.0,B,5606 W DIVISION ST,60651,AUSTIN,25,29,17031250600,170313000000000.0,41.90225069,-87.76595092,436468.5695380345,4639206.943919337
375,375,RIVERSIDE DELI,6403.0,3619.0,5500.0,B,1656 W CORTLAND ST,60622,LOGAN SQUARE,22,32,17031832300,170318000000000.0,41.91618612,-87.67013494,444428.1106698786,4640687.643799502
376,376,RIVIERA FOODS,39650.0,89265.0,3500.0,B,3218 N HARLEM AVE,60634,DUNNING,17,36,17031170800,170312000000000.0,41.93859128,-87.8069148,433108.7826475697,4643272.934664236
377,377,RJ Liquors,1597198.0,292263.0,3550.0,B,5640 W FULLERTON AVE,60639,BELMONT CRAGIN,19,30,17031190602,170312000000000.0,41.92406442,-87.76766049,436348.4469294621,4641630.151937337
378,378,RODRIGUEZ FRUITS & VEGETABLE,18231.0,7487.0,2626.0,B,2458 S ST LOUIS AVE,60623,SOUTH LAWNDALE,30,22,17031300700,170313000000000.0,41.84632986,-87.7125514,440846.2500333793,4632960.032646597
379,379,ROMAN BROS 1 INC,11900.0,5925.0,10001.0,A,6978 N CLARK ST,60626,ROGERS PARK,1,49,17031010702,170310000000000.0,42.00885647,-87.67408037,444181.8720422226,4650979.300050562
380,380,ROSE-RIDGE FOODS,1145417.0,216010.0,3000.0,B,10500 S MICHIGAN AVE,60628,ROSELAND,49,9,17031490902,170315000000000.0,41.70341522,-87.62080968,448347.8509332251,4617033.777580425
381,381,ROYLA BLUE FOODS,27007.0,63611.0,2500.0,B,4359 S CAMPBELL AVE,60632,BRIGHTON PARK,58,12,17031580700,170316000000000.0,41.81393768,-87.68692201,442945.1747002277,4629346.307496709
382,382,"S & K FOOD & LIQUOR, INC.",1544.0,291.0,10001.0,A,7500 S EXCHANGE AVE,60649,SOUTH SHORE,43,7,17031431302,170314000000000.0,41.75899276,-87.56037781,453416.0508618227,4623169.751518185
383,383,S & T PROVISION CO INC,12173.0,6018.0,10001.0,A,3804 W 111TH ST,60655,MOUNT GREENWOOD,74,19,17031740300,170317000000000.0,41.69144591,-87.7156731,440444.0077592767,4615766.140832647
384,384,S L PANTRY & GRILL,2013420.0,17935.0,2600.0,B,4759 N SHERIDAN RD,60640,UPTOWN,3,46,17031031501,170310000000000.0,41.96904667,-87.65467406,445755.05669169564,4646546.7701214105
385,385,S. S. FOOD & LIQUOR,1476109.0,272992.0,2703.0,B,2427 N CLARK ST,60614,LINCOLN PARK,7,43,17031070101,170311000000000.0,41.9263717,-87.64080008,446869.2073852699,4641799.937043511
386,386,SAFAH FOOD & LIQUOR INC,14103.0,6462.0,3000.0,B,7105 S RACINE AVE,60636,ENGLEWOOD,68,17,17031681400,170317000000000.0,41.7648964,-87.65396483,445641.151947665,4623880.113548602
387,387,SAHAR INTERNATIONAL SUPERMARKET,2079006.0,263556.0,7900.0,B,4851 N KEDZIE AVE,60625,ALBANY PARK,14,33,17031140100,170311000000000.0,41.96995754,-87.70837288,441306.4958656905,4646683.297309029
388,388,SAM FOOD AND LIQUOR,8745.0,4153.0,3000.0,B,6812 N SHERIDAN RD,60626,ROGERS PARK,1,49,17031010502,170310000000000.0,42.00594482,-87.66117475,445248.0475904145,4650647.686029661
389,389,SANABEL GROCERY & BAKERY,2009055.0,349374.0,6200.0,B,4213 N KEDZIE AVE,60618,IRVING PARK,16,33,17031160601,170312000000000.0,41.9579834,-87.70799592,441326.7442592482,4645353.561511103
390,390,SAVE-A-LOT   #856,1222884.0,216203.0,12000.0,A,5555 W NORTH AVE,60639,AUSTIN,25,37,17031250700,170313000000000.0,41.90927457,-87.76518779,436538.82401302934,4639986.227171087
391,391,SAVE-A-LOT  # 858,1272454.0,216203.0,12000.0,A,2858 E 83RD ST,60617,SOUTH CHICAGO,46,7,17031460302,170315000000000.0,41.74473084,-87.55403914,453932.78719901014,4621582.914001039
392,392,SAVE-A-LOT  #851,1167119.0,216203.0,114100.0,A,10700 S HALSTED ST,60628,MORGAN PARK,75,34,17031750100,170318000000000.0,41.69954741,-87.64275192,446519.0152357989,4616617.751235025
393,393,SAVE-A-LOT  #852,1145759.0,216203.0,14166.0,A,7240 S STONY ISLAND AVE,60649,SOUTH SHORE,43,5,17031430400,170314000000000.0,41.76302237,-87.58639016,451256.69737823145,4623631.551282468
394,394,SAVE-A-LOT  #859,1272455.0,216203.0,12000.0,A,420 S PULASKI RD,60624,WEST GARFIELD PARK,26,24,17031260700,170313000000000.0,41.87453731,-87.7255969,439789.7157792478,4636100.893204863
395,395,SAVE-A-LOT  #862,1353496.0,216203.0,14800.0,A,4701 S COTTAGE GROVE AVE,60615,KENWOOD,39,4,17031390400,170314000000000.0,41.80948925,-87.60641743,449628.32264372095,4628802.098290599
396,396,SAVE-A-LOT # 854,1245433.0,216203.0,15000.0,A,7908 S HALSTED ST,60620,AUBURN GRESHAM,71,17,17031710800,170317000000000.0,41.75032239,-87.64418241,446442.17378851236,4622255.89879709
397,397,SAVE-A-LOT #860,1196076.0,216203.0,12500.0,A,4439 W 63RD ST,60629,WEST LAWN,65,13,17031650301,170317000000000.0,41.77841597,-87.73405757,438996.4571638523,4625434.845724626
398,398,Save-A-Lot #882,2079367.0,216203.0,16290.0,A,344 E 63RD ST,60637,WASHINGTON PARK,40,20,17031400800,170314000000000.0,41.78032161,-87.61713538,448714.79153989133,4625570.08083042
399,399,Save-A-Lot #886,2079232.0,216203.0,13000.0,A,148 W 79TH ST,60620,GREATER GRAND CROSSING,69,17,17031691200,170317000000000.0,41.75098379,-87.62896145,447708.19895295025,4622319.967898508
400,400,SAVEWAY FOOD,1594450.0,290756.0,3000.0,B,313 E 43RD ST,60653,GRAND BOULEVARD,38,3,17031835800,170318000000000.0,41.81648632,-87.61919683,448572.4028124503,4629586.523838432
401,401,SERRELLI'S FOODS,6981.0,62794.0,4000.0,B,6454 W NORTH AVE,60707,AUSTIN,25,36,17031250500,170313000000000.0,41.9092299,-87.78712882,434719.0774277596,4639997.734005012
402,402,SEVEN ELEVEN,34710.0,14901.0,3000.0,B,1425 W MONTROSE AVE,60613,LAKE VIEW,6,47,17031060100,170311000000000.0,41.96152382,-87.66603986,444806.8125649075,4645718.774442982
403,403,"SEVEN NINE ELEVEN FOOD MART, INC.",2036.0,401.0,4300.0,B,4884 S ARCHER AVE,60632,ARCHER HEIGHTS,57,14,17031570400,170316000000000.0,41.80462115,-87.71990707,440196.798967111,4628334.355236594
404,404,SHOP & SAVE MARKET,1991275.0,338404.0,63426.0,A,5829 S ARCHER AVE,60638,GARFIELD RIDGE,56,23,17031560700,170316000000000.0,41.79601962,-87.75968337,436884.0912345008,4627407.80227489
405,405,SHOP WISE FOOD,1334440.0,259101.0,6000.0,B,316 W 103RD ST,60628,ROSELAND,49,9,17031490700,170315000000000.0,41.70717395,-87.63140242,447469.5771390624,4617457.493970263
406,406,SOLID GOLD,1490386.0,203033.0,3300.0,B,3821 W ROOSEVELT RD,60624,NORTH LAWNDALE,29,24,17031838700,170318000000000.0,41.86611949,-87.72092757,440169.3312552072,4635163.020275124
407,407,SOUTH SHORE FOOD MARKET INC.,2008403.0,349092.0,3000.0,B,7501 S JEFFERY BLVD,60649,SOUTH SHORE,43,8,17031431200,170314000000000.0,41.75878729,-87.57599348,452117.76971201476,4623155.513041737
408,408,STANLEY'S,15042.0,6609.0,10001.0,A,1558 N ELSTON AVE,60622,WEST TOWN,24,32,17031842300,170318000000000.0,41.91057467,-87.66223523,445078.3979480876,4640059.527160072
409,409,STEVE FOOD & LIQUOR,47965.0,11529.0,3500.0,B,6058 S RACINE AVE,60636,WEST ENGLEWOOD,67,16,17031670900,170317000000000.0,41.78333418,-87.65474328,445592.030071987,4625927.665872551
410,410,STOP & GO FOOD MART,26776.0,11123.0,3250.0,B,1622 W MONTEREY AVE,60643,MORGAN PARK,75,34,17031750600,170318000000000.0,41.68957477,-87.66272315,444848.7564451462,4615523.144920503
411,411,STRACK & VAN TIL,1798602.0,308026.0,65400.0,A,2627 N ELSTON AVE,60647,LOGAN SQUARE,22,1,17031830900,170318000000000.0,41.92948927,-87.68368782,443315.9892883685,4642173.539621468
412,412,SUN LIQUORS,19461.0,88712.0,4350.0,B,1101 W GRANVILLE AVE,60660,EDGEWATER,77,48,17031030102,170310000000000.0,41.99446571,-87.65839281,445468.62107569136,4649371.389202536
413,413,SUNRISE FOOD AND LIQUORS,21927.0,9067.0,7000.0,B,3737 W CHICAGO AVE,60651,HUMBOLDT PARK,23,27,17031231500,170312000000000.0,41.89531476,-87.72019984,440256.92883825745,4638403.991479012
414,414,"SUPER DOLLAR AND UP 4, INC.",1597521.0,291475.0,4000.0,B,1604 W 59TH ST,60636,WEST ENGLEWOOD,67,15,670300,170317000000000.0,41.78685263,-87.66461558,444774.67532948416,4626324.597597318
415,415,SUPER DOLLAR DISCOUNT,2032403.0,353027.0,3500.0,B,4801 S ASHLAND AVE,60609,NEW CITY,61,20,17031611200,170316000000000.0,41.80669392,-87.66477165,444778.74242566153,4628527.59216385
416,416,"SUPER FOOD & LIQUORS, INC.",40429.0,15748.0,4000.0,B,1049 W BRYN MAWR AVE,60660,EDGEWATER,77,48,17031030701,170310000000000.0,41.98356392,-87.65714629,445562.57676728483,4648160.176716213
417,417,SUPER FURNITURE & FOOD MART,2060727.0,357170.0,4000.0,B,5257 S ASHLAND AVE,60609,NEW CITY,61,16,17031611900,170316000000000.0,41.79782259,-87.66453688,444790.6294100745,4627542.494262727
418,418,SUPER JIM'S,37540.0,33441.0,4500.0,B,5147 W DIVISION ST,60651,AUSTIN,25,37,17031251100,170313000000000.0,41.90214722,-87.75523939,437356.936797056,4639187.578409086
419,419,SUPER MAS MARKET,1997806.0,347422.0,32000.0,A,1422 W 47TH ST,60609,NEW CITY,61,3,17031842600,170318000000000.0,41.80876546,-87.66117011,445079.68604587583,4628755.279107033
420,420,SUPER MERCADO EL GUERRO,7546.0,3857.0,9375.0,B,1701 W 47TH ST,60609,NEW CITY,61,20,17031611300,170316000000000.0,41.80847124,-87.66745451,444557.41392594634,4628726.648105602
421,421,SUPER MERCADO LA CHIQUITA,6054.0,3546.0,9500.0,B,3555 W 26TH ST,60623,SOUTH LAWNDALE,30,22,17031301600,170313000000000.0,41.84427912,-87.71455377,440678.12425452325,4632733.7266952805
422,422,SUPERIOR NUT & CANDY  CO.I INC.,1122087.0,26728.0,10005.0,A,1111 W 40TH ST,60609,NEW CITY,61,11,17031842600,170318000000000.0,41.82095749,-87.65377832,445703.98908953764,4630104.215153625
423,423,SUPERMARKET & TAQUERIA CARO,2014104.0,310507.0,4524.0,B,4937 W 47TH ST,60638,GARFIELD RIDGE,56,23,17031560300,170316000000000.0,41.80746088,-87.74706057,437943.8643753646,4628668.889469761
424,424,SUPERMERCADO ALEX,1772307.0,4076.0,9375.0,B,4134 W 31ST ST,60623,SOUTH LAWNDALE,30,22,17031301803,170313000000000.0,41.83694724,-87.72814236,439543.0987535553,4631929.167190689
425,425,SUPERMERCADO CHAPALA,32236.0,86830.0,10001.0,A,7117 N CLARK ST,60626,ROGERS PARK,1,49,17031010702,170310000000000.0,42.0119758,-87.67438406,444159.45283986756,4651325.836921084
426,426,SUPERMERCADO EL CUBANO INC,57265.0,6678.0,2750.0,B,4939 S ASHLAND AVE,60609,NEW CITY,61,20,17031611200,170316000000000.0,41.80378232,-87.66469533,444782.582200257,4628204.280054994
427,427,SUPERMERCADO EL GUERO #10 INC,39978.0,10046.0,10001.0,A,4023 S ARCHER AVE,60632,BRIGHTON PARK,58,12,17031580600,170316000000000.0,41.82058304,-87.69342617,442410.8989092352,4630088.455597499
428,428,SUPERMERCADO EL GUERO NO. 8,20973.0,8662.0,14000.0,A,2101 W CERMAK RD,60608,LOWER WEST SIDE,31,25,17031841300,170318000000000.0,41.85202569,-87.67841224,443685.38556747546,4633569.470460307
429,429,SUPERMERCADO EL MEXICANO,1840895.0,295467.0,4387.0,B,6701 N CLARK ST,60626,ROGERS PARK,1,49,17031830600,170318000000000.0,42.00358497,-87.67235193,444320.40199030575,4650392.88099257
430,430,SUPERMERCADO GELA'S,67273.0,20695.0,3125.0,B,2701 S LAWNDALE AVE,60623,SOUTH LAWNDALE,30,22,17031301701,170313000000000.0,41.84242453,-87.71703032,440470.80208157736,4632529.531137602
431,431,SUPERMERCADO GUADALAJARA #2,3991.0,23651.0,6000.0,B,2300 S KEDZIE AVE,60623,SOUTH LAWNDALE,30,24,17031300800,170313000000000.0,41.84985753,-87.70534348,441447.84896984324,4633346.758964412
432,432,SUPERMERCADO GUERRERO,2042000.0,354339.0,3800.0,B,3100 W CERMAK RD,60623,SOUTH LAWNDALE,30,24,17031841700,170318000000000.0,41.85190837,-87.70287599,441654.5457843316,4633572.7778472565
433,433,SUPERMERCADO LA CHIQUTIA # 4,49303.0,89325.0,10001.0,A,2623 S PULASKI RD,60623,SOUTH LAWNDALE,30,22,17031301701,170313000000000.0,41.84353489,-87.72438218,439861.473082147,4632657.932764226
434,434,SUPERMERCADO LA VILLA,1800261.0,313811.0,9000.0,B,5020 W FULLERTON AVE,60639,BELMONT CRAGIN,19,31,17031190800,170312000000000.0,41.92427271,-87.75211504,437637.6288437074,4641641.855339613
435,435,Supermercado Santos,1091886.0,206261.0,4000.0,B,4045 W 31ST ST,60623,SOUTH LAWNDALE,30,22,17031830500,170318000000000.0,41.83674996,-87.72613266,439709.77788810007,4631905.851258652
436,436,SUPERMERCADO TEPECOA GUERRERO,1493584.0,277252.0,3500.0,B,3629 W 63RD ST,60629,WEST LAWN,65,13,17031650302,170317000000000.0,41.77868472,-87.71425166,440642.67662076914,4625450.822903714
437,437,"SWEQI FOOD MART, INC.",2055024.0,356315.0,2600.0,B,4100 W NORTH AVE,60639,HUMBOLDT PARK,23,30,17031230500,170312000000000.0,41.90996088,-87.72887496,439551.1098586239,4640036.197373749
438,438,"SZYMANSKI BROS, INC",18082.0,86677.0,3000.0,B,6016 W IRVING RD,60634,PORTAGE PARK,15,38,17031150502,170312000000000.0,41.95314974,-87.77751749,435560.4255602854,4644866.823299239
439,439,T & Z MEAT,1974575.0,343806.0,3000.0,B,3021 N CICERO AVE,60641,BELMONT CRAGIN,19,31,17031190100,170312000000000.0,41.93581593,-87.7466187,438104.5267043765,4642919.4992592735
440,440,TAI NAM CORPORATION,34508.0,88874.0,10001.0,A,4925 N BROADWAY,60640,UPTOWN,3,48,17031031200,170310000000000.0,41.97221356,-87.6596091,445348.8546878982,4646901.523398788
441,441,TAI WAH GROCERY,28038.0,63654.0,3200.0,B,2226 S WENTWORTH AVE,60616,ARMOUR SQUARE,34,25,17031841100,170318000000000.0,41.8521272,-87.632144,447526.1868834921,4633551.432085784
442,442,THE CELLAR,1574603.0,286737.0,5000.0,B,3106 N HARLEM AVE,60634,DUNNING,17,36,17031170900,170312000000000.0,41.93661313,-87.80684752,433112.29285368073,4643053.250466647
443,443,THE FISH KEG INC,4908.0,3299.0,4000.0,B,2233 W HOWARD ST,60645,WEST RIDGE,2,49,17031020100,170310000000000.0,42.01939474,-87.6860205,443202.5258405576,4652157.218030941
444,444,THE MARKET PLACE FOODSTORE,10794.0,24875.0,16900.0,A,521 W DIVERSEY PKWY,60614,LINCOLN PARK,7,43,17031070102,170311000000000.0,41.93274396,-87.64221885,446756.8714240982,4642508.317992874
445,445,THE NEIGHBORHOOD STORE,47617.0,16859.0,4200.0,B,8313 S RACINE AVE,60620,AUBURN GRESHAM,71,21,17031711000,170317000000000.0,41.74278773,-87.65338425,445670.7697792362,4621425.133713963
446,446,THE PRODUCE CENTER,44723.0,16464.0,12000.0,A,5820 N MILWAUKEE AVE,60646,NORWOOD PARK,10,45,17031100100,170311000000000.0,41.98726964,-87.7785157,435512.1200086741,4648655.885660418
447,447,The Unit,2021618.0,351168.0,3500.0,B,2523 E 75TH ST,60649,SOUTH SHORE,43,7,17031431302,170314000000000.0,41.75892232,-87.56287604,453208.3222166,4623163.2867519045
448,448,THE WAREHOUSE,1843355.0,315225.0,6000.0,B,538 W 119TH ST,60628,WEST PULLMAN,53,34,17031530200,170315000000000.0,41.677986,-87.63620086,447046.4280498939,4614219.878204299
449,449,THREE BROTHER,6321.0,62766.0,10001.0,A,900 N FRANCISCO AVE,60622,WEST TOWN,24,26,17031242700,170312000000000.0,41.89810682,-87.69937838,441986.6776666236,4638699.698539145
450,450,THREE R FOOD,1943396.0,339315.0,3000.0,B,2712 W MONTROSE AVE,60618,ALBANY PARK,14,33,17031140800,170311000000000.0,41.96137095,-87.69666935,442268.46615885524,4645721.984418045
451,451,"THREE ROOSTERS, INC.",1980803.0,345267.0,4830.0,B,12247 S HALSTED ST,60628,WEST PULLMAN,53,34,17031530501,170315000000000.0,41.67097177,-87.64153305,446596.8083158469,4613444.425602467
452,452,Three Stars Liquors,1488855.0,274865.0,4600.0,B,310 N KOSTNER AVE,60624,WEST GARFIELD PARK,26,28,17031260400,170313000000000.0,41.88582299,-87.73578781,438954.80806486926,4637361.113634222
453,453,THRIFTY FOOD,1045545.0,28478.0,4000.0,B,928 W WILSON AVE,60640,UPTOWN,3,46,17031031501,170310000000000.0,41.9655577,-87.65355928,445844.4705443885,4646158.688055914
454,454,TIERRA CALIENTE MARKET,1769425.0,311388.0,3125.0,B,1402 N ASHLAND AVE,60622,WEST TOWN,24,1,17031241500,170312000000000.0,41.90710182,-87.66773966,444618.89139378886,4639677.483136606
455,455,"TONY'S FINER FOODS ENTERPRISES, INC.",1717867.0,305203.0,21000.0,A,3607 W FULLERTON AVE,60647,LOGAN SQUARE,22,35,17031220902,170312000000000.0,41.92449009,-87.71728813,440525.55569939286,4641641.24834397
456,456,"TONY'S FINER FOODS ENTERPRISES, INC.",1717529.0,305203.0,31000.0,A,4137 N ELSTON AVE,60618,IRVING PARK,16,39,17031160400,170312000000000.0,41.9561262,-87.72248283,440124.43530246563,4645157.37915372
457,457,"TONY'S FINER FOODS ENTERPRISES, INC.",1717532.0,305203.0,33000.0,A,4608 W BELMONT AVE,60641,PORTAGE PARK,15,30,17031151002,170312000000000.0,41.93899382,-87.74269899,438432.53359423374,4643269.513529619
458,458,"TONY'S FINER FOODS ENTERPRISES, INC.",1717568.0,305203.0,35000.0,A,2500 N CENTRAL AVE,60639,BELMONT CRAGIN,19,30,17031190602,170312000000000.0,41.92589288,-87.76620483,436470.95966891677,4641832.083547041
459,459,TRADER JOE'S,1991799.0,211718.0,15000.0,A,3745 N LINCOLN AVE,60613,NORTH CENTER,5,47,17031050600,170311000000000.0,41.94996117,-87.67567113,443998.56551541283,4644441.235563259
460,460,TRADER JOE'S EAST,1592120.0,211718.0,10615.0,A,44 E ONTARIO ST,60611,NEAR NORTH SIDE,8,42,17031081500,170311000000000.0,41.89340802,-87.62643774,448033.3108248295,4638131.251439286
461,461,TRADER JOE'S EAST,1277005.0,211718.0,11600.0,A,1840 N CLYBOURN AVE,60614,LINCOLN PARK,7,32,17031832600,170318000000000.0,41.91442371,-87.65462784,445712.5715298225,4640482.034977766
462,462,TRATTORIA ISABELLA,1842843.0,320408.0,3365.0,B,217 N JEFFERSON ST,60661,NEAR WEST SIDE,28,42,17031280100,170313000000000.0,41.88629367,-87.64264392,446682.9910855122,4637351.305552402
463,463,TREASURE ISLAND FOODS,1319.0,85291.0,10001.0,A,680 N LAKE SHORE DR,60611,NEAR NORTH SIDE,8,42,17031081401,170311000000000.0,41.89479837,-87.61586665,448911.3566078525,4638279.270002813
464,464,TREASURE ISLAND FOODS,1307.0,85291.0,10001.0,A,1639 N WELLS ST,60614,LINCOLN PARK,7,43,17031071500,170311000000000.0,41.9123118,-87.63459886,447371.821204667,4640235.070109537
465,465,TREASURE ISLAND FOODS,1315.0,85291.0,10001.0,A,2121 N CLYBOURN AVE,60614,LINCOLN PARK,7,43,17031832500,170318000000000.0,41.91989968,-87.66180554,445122.0231315405,4641094.589508977
466,466,TREASURE ISLAND FOODS,1311.0,85291.0,10001.0,A,3460 N BROADWAY,60657,LAKE VIEW,6,44,17031062000,170311000000000.0,41.94482827,-87.64589349,446462.3331303487,4643852.308548514
467,467,TREASURE ISLAND FOODS INC,1303.0,85291.0,10001.0,A,75 W ELM ST,60610,NEAR NORTH SIDE,8,42,17031081000,170311000000000.0,41.90302614,-87.63134877,447633.76870873035,4639202.114530349
468,468,TWO BLUE FOODS INC,66710.0,20549.0,3000.0,B,702 E 100TH PL,60628,PULLMAN,50,8,17031500100,170315000000000.0,41.71240379,-87.60512759,449659.63909025624,4618022.436909095
469,469,ULTRA FOODS,1741082.0,308026.0,87600.0,A,3250 W 87TH ST,60652,ASHBURN,70,18,17031700402,170317000000000.0,41.73527409,-87.70351128,441495.8392242736,4620623.795289401
470,470,VIET HOA PLAZA,10540.0,85532.0,6174.0,B,1051 W ARGYLE ST,60640,UPTOWN,3,48,17031031200,170310000000000.0,41.97317401,-87.65699233,445566.4829526668,4647006.4952949155
471,471,W & R FOOD & LIQUOR INC,19348.0,7922.0,2700.0,B,1717 E 79TH ST,60649,SOUTH CHICAGO,46,8,17031460500,170315000000000.0,41.7514187,-87.58220582,451595.80079387204,4622340.893494615
472,472,W K R B FOOD & LIQUOR,25165.0,10242.0,4340.0,B,9361 S COTTAGE GROVE AVE,60619,CHATHAM,44,8,17031440800,170314000000000.0,41.72386029,-87.60436472,449732.03096289065,4619293.938844583
473,473,WALLY'S INTERNATIONAL MARKET,32288.0,14504.0,10001.0,A,3256 N MILWAUKEE AVE,60618,AVONDALE,21,31,17031831100,170318000000000.0,41.94017781,-87.72585843,439829.68564099574,4643389.012396014
474,474,WALLY'S MARKET INC,72825.0,21938.0,33000.0,A,6601 W IRVING PARK RD,60634,DUNNING,17,38,17031170300,170312000000000.0,41.95272166,-87.79136221,434412.547596854,4644829.796889613
475,475,WASHINGTON GROCERY,6249.0,23967.0,4200.0,B,4139 W FIFTH AVE,60624,WEST GARFIELD PARK,26,24,17031261000,170313000000000.0,41.87186361,-87.72905737,439500.04162722686,4635806.472571089
476,476,"WAY LOW DISCOUNT FOOD, INC.",41036.0,16053.0,2500.0,B,1551 S KEDZIE AVE,60623,NORTH LAWNDALE,29,24,17031843100,170318000000000.0,41.85984596,-87.70533855,441457.3680192374,4634455.740787268
477,477,WEST HAVEN MARKET & GRILL,17558.0,7111.0,3200.0,B,2132 W WASHINGTON BLVD,60612,NEAR WEST SIDE,28,2,17031837800,170318000000000.0,41.88319447,-87.68046649,443542.2939168745,4637031.400702122
478,478,WEST LAWN FOODS,1591726.0,289367.0,17000.0,A,5838 S PULASKI RD,60629,WEST ELSDON,62,13,17031620300,170316000000000.0,41.78660841,-87.72313003,439912.240674587,4626336.72225149
479,479,WHOLE FOODS MARKET,54059.0,86298.0,4501.0,B,3300 N ASHLAND AVE,60657,LAKE VIEW,6,44,17031062500,170311000000000.0,41.94156586,-87.6688604,444555.7861175271,4643504.688069417
480,480,WHOLE FOODS MARKET,1678035.0,86298.0,6335.0,B,6020 N CICERO AVE,60646,FOREST GLEN,12,39,17031120200,170311000000000.0,41.99049477,-87.74847741,438003.4687163434,4648991.788620556
481,481,WHOLE FOODS MARKET,1678043.0,86298.0,11310.0,A,1101 S CANAL ST,60607,NEAR WEST SIDE,28,2,17031841900,170318000000000.0,41.86888971,-87.63909893,446962.7142126076,4635416.795336423
482,482,WHOLE FOODS MARKET,1678048.0,86298.0,19740.0,A,3640 N HALSTED ST,60613,LAKE VIEW,6,44,17031061000,170311000000000.0,41.9485198,-87.64967012,446152.3960639327,4644264.539718179
483,483,WHOLE FOODS MARKET,76395.0,86298.0,30591.0,A,30 W HURON ST,60610,NEAR NORTH SIDE,8,42,17031081600,170311000000000.0,41.89496867,-87.62939918,447788.9119879,4638306.324453994
484,484,WHOLE FOODS MARKET,1933690.0,86298.0,74883.0,A,1550 N KINGSBURY ST,60642,NEAR NORTH SIDE,8,32,17031842200,170318000000000.0,41.90939879,-87.6530507,445839.11441783485,4639923.131396118
485,485,WILLIAM'S PRODUCE,2079521.0,359604.0,6375.0,B,6309 W GRAND AVE,60639,BELMONT CRAGIN,19,29,17031191301,170312000000000.0,41.92189423,-87.78339752,435041.3808288356,4641401.000544635
486,486,WINDY CITY INC,24289.0,9833.0,4225.0,B,324 S CICERO AVE,60644,AUSTIN,25,24,17031252202,170313000000000.0,41.87594436,-87.74525023,438160.22197068937,4636271.087919134
487,487,WORLD FRESH MARKET,1492163.0,21515.0,5500.0,B,2434 W DEVON AVE,60659,WEST RIDGE,2,50,17031020602,170310000000000.0,41.99781793,-87.69125189,442750.05887995823,4649765.032174362
488,488,Z & S FOOD & LIQUOR,7382.0,3827.0,6000.0,B,1351 W 87TH ST,60620,AUBURN GRESHAM,71,21,17031711400,170317000000000.0,41.73575698,-87.65782823,445295.2820043889,4620647.36244405
489,489,ZEE DOLLAR AND FOOD,2014197.0,350114.0,3000.0,B,375 E 75TH ST,60619,GREATER GRAND CROSSING,69,6,17031691300,170317000000000.0,41.75829332,-87.61535411,448845.3216081751,4623123.326630626
490,490,ZIAD CERTIFIED FOODS,9046.0,4213.0,2500.0,B,513 E 47TH ST,60653,GRAND BOULEVARD,38,3,17031381200,170314000000000.0,41.80932287,-87.61333552,449053.5416049719,4628787.703740415
491,491,WALGREENS # 05192,1144217.0,147.0,,A,2924 E 92ND ST,60617,SOUTH CHICAGO,46,7,17031461000,170315000000000.0,41.72833654,-87.55286024,454019.11835390964,4619762.117192073
492,492,WALGREENS #232,18449.0,147.0,,A,3405 S DR MARTIN LUTHER KING JR DR,60616,DOUGLAS,35,4,17031351000,170314000000000.0,41.8326245,-87.6168411,448780.92362601834,4631376.877047083
493,493,WALGREENS #162,18419.0,147.0,,A,1554 E 55TH ST,60615,HYDE PARK,41,4,17031410800,170314000000000.0,41.79529732,-87.58782256,451162.12420156226,4627215.697926304
494,494,WALGREENS #2073,18619.0,7551.0,,A,5401 S WENTWORTH AVE,60609,FULLER PARK,37,3,17031835600,170318000000000.0,41.79623488,-87.63040492,447625.01512262627,4627344.858919018
495,495,WALGREENS #2923,18551.0,147.0,,A,6330 S DR MARTIN LUTHER KING JR DR,60637,GREATER GRAND CROSSING,69,20,17031842500,170318000000000.0,41.77929761,-87.61574988,448829.1158352596,4625455.565514043
496,496,WALGREENS #11410,1959845.0,7551.0,,A,1627 N PULASKI RD,60639,HUMBOLDT PARK,23,30,17031230400,170312000000000.0,41.91071448,-87.72621042,439772.8019090125,4640117.99370576
497,497,WALGREENS #226,18468.0,147.0,,A,4005 W 26TH ST,60623,SOUTH LAWNDALE,30,22,17031301802,170313000000000.0,41.84414469,-87.72477825,439829.1623455856,4632725.914337772
498,498,WALMART,2164075.0,303471.0,,A,1424 W 47TH ST,60609,NEW CITY,61,3,17031842600,170318000000000.0,41.80876829,-87.66098821,445094.7981220157,4628755.477085301
499,499,PETE'S FRESH SUPERMARKET,1771242.0,312119.0,,A,2526 W CERMAK RD,60608,SOUTH LAWNDALE,30,28,17031840700,170318000000000.0,41.85210065,-87.68905111,442802.32108058594,4633584.824908593
500,500,SAVE-A-LOT # 866,1299911.0,216203.0,,A,3939 W OGDEN AVE,60623,NORTH LAWNDALE,29,22,17031843400,170318000000000.0,41.85128849,-87.72385084,439912.8415404436,4633518.41888776
501,501,MARIANO'S FRESH MARKET #8507,2163771.0,360006.0,,A,5353 N ELSTON AVE,60630,JEFFERSON PARK,11,45,17031110100,170311000000000.0,41.97871026,-87.75715377,437273.2327255461,4647689.676848114
502,502,WALGREENS # 06297,1248924.0,147.0,,A,6016 W 63RD ST,60638,CLEARING,64,23,17031640300,170316000000000.0,41.77795816,-87.7722942,435818.3403208559,4625411.849065722
503,503,WALGREENS #05034,18768.0,7551.0,,A,6315 S KEDZIE AVE,60629,CHICAGO LAWN,66,15,17031660600,170317000000000.0,41.77842134,-87.70297606,441579.4928724709,4625413.859266288
504,504,WALMART,,,,A,10900 S DOTY AVE W,60628,PULLMAN,50,9,17031500200,170315000000000.0,41.69631368,-87.59663224,450353.99129020335,4616231.119525792
505,505,LOUIS' GROCERIES,2153429.0,372246.0,,A,7604 S COTTAGE GROVE AVE,60619,GREATER GRAND CROSSING,69,6,17031691400,170317000000000.0,41.75655031,-87.60548285,449664.56566887244,4622923.986496185
