STORE NAME,LICENSE ID,ACCOUNT NUMBER,SQUARE FEET,BUFFER SIZE,ADDRESS,ZIP CODE,COMMUNITY AREA NAME,COMMUNITY AREA,WARD,CENSUS TRACT,CENSUS BLOCK,LATITUDE,LONGITUDE
200 LIQUORS,48663,17055,5000,B,204 E 47TH ST,60653,GRAND BOULEVARD,38,3,17031381500,1.70314E+14,41.80942389,-87.6209518
3600 COMMISSARY,24279,9830,3800,B,3600 N LAKE SHORE DR,60613,LAKE VIEW,6,46,17031060900,1.70311E+14,41.94868367,-87.64364976
4343 PETES FRESH MARKET,1336669,260303,57000,A,4343 S PULASKI RD,60632,ARCHER HEIGHTS,57,14,17031570100,1.70316E+14,41.81391431,-87.72366494
4700 PETE'S FRESH MARKET,1243125,245519,45000,A,4700 S KEDZIE AVE,60632,BRIGHTON PARK,58,14,17031842800,1.70318E+14,41.80804727,-87.70411882
5659 W. DIVERSEY,1575023,277375,4000,B,5659 W DIVERSEY AVE,60639,BELMONT CRAGIN,19,30,17031190602,1.70312E+14,41.9311354,-87.76861213
"7400 S HALSTED FOOD AND LIQUORS, INC.",980,186,10001,A,7400 S HALSTED ST,60621,ENGLEWOOD,68,17,17031681300,1.70317E+14,41.75967458,-87.64442024
79 FOOD BASKET,1958784,341069,3000,B,1351 W 79TH ST,60620,AUBURN GRESHAM,71,21,17031710700,1.70317E+14,41.75032112,-87.65818905
A & B FOOD MARKET INC,43181,6483,10001,A,5057 W DIVISION ST,60651,AUSTIN,25,37,17031251100,1.70313E+14,41.90216644,-87.75318235
A & G LIQUORS,44373,35423,4800,B,6945 S STATE ST,60637,GREATER GRAND CROSSING,69,6,17031690400,1.70317E+14,41.76783128,-87.62476594
A & R FOOD MART,9125,4227,2500,B,5952 W GRAND AVE,60639,BELMONT CRAGIN,19,37,17031191302,1.70312E+14,41.92059646,-87.77519268
A & R FOOD MART,1954411,340750,3500,B,5952 W GRAND AVE,60639,BELMONT CRAGIN,19,37,17031191302,1.70312E+14,41.92059646,-87.77519268
AARAY GROCERY,1900,62541,10001,A,2601 N HALSTED ST,60614,LINCOLN PARK,7,43,17031070200,1.70311E+14,41.92920982,-87.64874627
ADA FOODS,50473,56673,4500,B,1281 W 71ST ST,60636,WEST ENGLEWOOD,67,17,17031671800,1.70317E+14,41.76489418,-87.6573078
ADAMS FOOD MART,1817376,316090,2500,B,559 N LARAMIE AVE,60644,AUSTIN,25,28,17031251600,1.70313E+14,41.89103355,-87.75530965
AL BAYAN GROCERY INC.,1542202,282078,2500,B,3134 N NARRAGANSETT AVE,60634,BELMONT CRAGIN,19,36,17031831500,1.70318E+14,41.93756465,-87.78605437
ALDI,1959623,5273,15680,A,6221 N BROADWAY,60660,EDGEWATER,77,49,17031030103,1.7031E+14,41.99521146,-87.66027799
ALDI,1922075,5273,16615,A,6621 S COTTAGE GROVE AVE,60637,WOODLAWN,42,5,17031420800,1.70314E+14,41.77430588,-87.60564803
ALDI #28,1519765,5273,15154,A,4934 S KEDZIE AVE,60632,BRIGHTON PARK,58,14,17031630300,1.70316E+14,41.80344571,-87.70398627
ALDI #30,1547427,5273,15154,A,3030 S KEDZIE AVE,60623,SOUTH LAWNDALE,30,12,17031840800,1.70318E+14,41.83811415,-87.70499446
ALDI #32,1975885,5273,16924,A,1840 N CLYBOURN AVE,60614,LINCOLN PARK,7,32,17031832600,1.70318E+14,41.91442371,-87.65462784
ALDI #70,1997726,5273,18263,A,7627 S ASHLAND AVE,60620,AUBURN GRESHAM,71,17,17031710300,1.70317E+14,41.75499092,-87.66340416
ALDI #79,1515471,5273,15150,A,7800 S SOUTH CHICAGO AVE,60619,AVALON PARK,45,5,17031834300,1.70318E+14,41.75274564,-87.58752349
ALDI FOODS #91,13994,5273,15565,A,3835 W MADISON ST,60624,WEST GARFIELD PARK,26,28,17031260800,1.70313E+14,41.88065941,-87.72219367
ALDI FOODS -STORE #04,13988,5273,12500,A,800 N KEDZIE AVE,60651,HUMBOLDT PARK,23,27,17031836600,1.70318E+14,41.89561531,-87.70670533
ALDI FOODS STORE #2,14004,5273,15600,A,4645 W DIVERSEY AVE,60639,HERMOSA,20,31,17031190900,1.70312E+14,41.93146094,-87.74371731
ALDI FOODS STORE #26,13998,5273,15540,A,2600 N CLYBOURN AVE,60614,LINCOLN PARK,7,32,17031070700,1.70311E+14,41.928695,-87.67419508
ALDI FOODS STORE #30,14000,5273,14860,A,4030 W WRIGHTWOOD AVE,60639,LOGAN SQUARE,22,31,17031220702,1.70312E+14,41.92820785,-87.72815856
ALDI FOODS STORE #90B,13992,5273,15565,A,2828 N CENTRAL AVE,60634,BELMONT CRAGIN,19,31,17031190402,1.70312E+14,41.93215768,-87.7664246
ALDI FOODS-STORE #27,13986,5273,12300,A,3363 N MILWAUKEE AVE,60641,IRVING PARK,16,30,17031161300,1.70312E+14,41.94238351,-87.72901086
ALDI INC # 62,13984,5273,12646,A,6220 N CALIFORNIA AVE,60659,WEST RIDGE,2,50,17031020702,1.7031E+14,41.99462096,-87.69968686
ALDI INC #06,13978,5273,14000,A,5001 N PULASKI RD,60630,ALBANY PARK,14,39,17031140302,1.70311E+14,41.97198122,-87.7279869
ALDI INC #10,14002,5273,15540,A,4501 S PULASKI RD,60632,ARCHER HEIGHTS,57,14,17031570100,1.70316E+14,41.81145154,-87.72357465
ALDI INC #53,13964,5273,13981,A,5775 S ARCHER AVE,60638,GARFIELD RIDGE,56,23,17031560700,1.70316E+14,41.79638049,-87.75734757
ALDI INC #58,13974,5273,12571,A,2431 W MONTROSE AVE,60618,NORTH CENTER,5,47,17031050300,1.70311E+14,41.9611941,-87.68996697
ALDI INC #64,13976,5273,11760,A,1767 N MILWAUKEE AVE,60647,WEST TOWN,24,32,17031831000,1.70318E+14,41.91358779,-87.68220284
ALDI INC #83,13990,5273,16300,A,8333 S CICERO AVE,60652,ASHBURN,70,18,17031700302,1.70317E+14,41.74091107,-87.74092286
ALDI INC #92,13996,5273,19410,A,620 W 63RD ST,60621,ENGLEWOOD,68,16,17031680900,1.70317E+14,41.77992005,-87.64092551
ALDI INC STORE #16,1226990,5273,20848,A,1246 E 87TH ST,60619,AVALON PARK,45,8,17031834300,1.70318E+14,41.73691535,-87.59365662
ALDI INC STORE #62,14006,5273,9495,B,1739 W CERMAK RD,60608,LOWER WEST SIDE,31,25,17031843200,1.70318E+14,41.8521512,-87.6700746
ALDI INC STORE #90,14008,5273,16340,A,9017 S HALSTED ST,60620,AUBURN GRESHAM,71,21,17031711500,1.70317E+14,41.73029727,-87.64330909
ALDI INC STORE #95,14011,5273,37000,A,2333 E 95TH ST,60617,SOUTH DEERING,51,7,17031510300,1.70315E+14,41.72246624,-87.56667305
ALDI INC STORE 14,1242812,5273,15000,A,5629 W FILLMORE ST,60644,AUSTIN,25,29,17031831400,1.70318E+14,41.86731565,-87.76559794
ALDI INC. #96,1868821,5273,16117,A,821 W 115TH ST,60643,WEST PULLMAN,53,34,17031530300,1.70315E+14,41.68496064,-87.64302231
ALDI INC.#94,14010,5273,10001,A,6025 S WESTERN AVE,60636,CHICAGO LAWN,66,16,17031835000,1.70318E+14,41.78396584,-87.68362338
ALDI'S,1817904,5273,11179,A,6520 W FULLERTON AVE,60707,BELMONT CRAGIN,19,36,17031831500,1.70318E+14,41.9237604,-87.78874776
ALDI'S,1817903,5273,15255,A,4500 N BROADWAY,60640,UPTOWN,3,46,17031830700,1.70318E+14,41.96378896,-87.65660649
ALDI'S # 26,1821323,5273,16550,A,10532 S INDIANAPOLIS AVE,60617,EAST SIDE,52,10,17031520100,1.70315E+14,41.70366236,-87.52571243
ALDI'S #08,1743166,5273,16890,A,7333 S STATE ST,60619,GREATER GRAND CROSSING,69,6,17031691000,1.70317E+14,41.76088087,-87.62466578
ALDI'S #47,1619769,5273,16370,A,1508 W 47TH ST,60609,NEW CITY,61,3,17031842600,1.70318E+14,41.80874139,-87.66291163
ALDI'S #93,1743165,5273,16890,A,7545 S WESTERN AVE,60620,ASHBURN,70,18,17031700100,1.70317E+14,41.75603509,-87.68285832
ALDI'S FOODS BELMONT,1975886,5273,18600,A,3320 W BELMONT AVE,60618,AVONDALE,21,35,17031831100,1.70318E+14,41.93940519,-87.71090059
ALL STAR FOOD & LIQUOR,1922124,319069,4200,B,2911 S ARCHER AVE,60608,BRIDGEPORT,60,11,17031600700,1.70316E+14,41.84148404,-87.65802198
ALLA'S FOOD,1068956,204849,3500,B,2024 E 93RD ST,60617,CALUMET HEIGHTS,48,8,17031480400,1.70315E+14,41.72624035,-87.57429226
ALMUFLIHI FOOD & LIQUOR,62800,86373,4500,B,5404 S HALSTED ST,60609,NEW CITY,61,20,17031612100,1.70316E+14,41.7958708,-87.64534412
AM-PM FOOD MART & CELLULAR,1093813,207399,3500,B,1924 E 87TH ST,60617,AVALON PARK,45,8,17031450300,1.70315E+14,41.73714625,-87.57708099
ANAR INC,31219,14297,10001,A,935 E 79TH ST,60619,CHATHAM,44,8,17031440101,1.70314E+14,41.75121793,-87.60140141
ANDYS FRUIT RANCH,1275209,3868,15000,A,4733 N KEDZIE AVE,60625,ALBANY PARK,14,33,17031140800,1.70311E+14,41.96762916,-87.70830369
ARISTA FOODS,1473367,271891,10000,A,112 N MAY ST,60607,NEAR WEST SIDE,28,27,17031833000,1.70318E+14,41.88340212,-87.65572529
ARMITAGE PRODUCE INC,1771323,4469,14340,A,2007 N KIMBALL AVE,60647,LOGAN SQUARE,22,35,17031221100,1.70312E+14,41.91756242,-87.71175511
AROUND THE CLOCK,15860,6777,3000,B,1605 W HOWARD ST,60626,ROGERS PARK,1,49,17031010202,1.7031E+14,42.01926518,-87.67157207
ASHLAND FOOD AND LIQUORS,11636,5463,10001,A,1554 W 95TH ST,60643,WASHINGTON HEIGHTS,73,21,17031730201,1.70317E+14,41.72132699,-87.66253366
ATHENS GROCERY,971,185,2600,B,324 S HALSTED ST,60661,NEAR WEST SIDE,28,27,17031833100,1.70318E+14,41.87716213,-87.64736429
AVENUE FOOD MAR INC,1246771,20727,18000,A,6850 W BELMONT AVE,60634,DUNNING,17,36,17031171000,1.70312E+14,41.93823738,-87.79776035
AWAMI BAZAAR & ZABIHA MEAT,68226,20954,2500,B,2340 W DEVON AVE,60659,WEST RIDGE,2,50,17031020500,1.7031E+14,41.99785369,-87.68906427
B & H FOOD & GROCERY,6068,3550,4500,B,713 S ALBANY AVE,60612,EAST GARFIELD PARK,27,28,17031837300,1.70318E+14,41.87235004,-87.70327264
Baltimore Food & Liquor,1446831,270755,3404,B,13322 S BALTIMORE AVE,60633,HEGEWISCH,55,10,17031550100,1.70316E+14,41.65296461,-87.54729865
BARI,1245246,246600,2500,B,1120 W GRAND AVE,60622,WEST TOWN,24,27,17031243500,1.70312E+14,41.89121012,-87.65556024
BERBATE FRUIT MARKET,1646036,296646,2500,B,3956 N NARRAGANSETT AVE,60634,DUNNING,17,38,17031170300,1.70312E+14,41.95273156,-87.78669844
BIG APPLE FINER FOODS INC,4900,3297,9000,B,2345 N CLARK ST,60614,LINCOLN PARK,7,43,17031071400,1.70311E+14,41.92496618,-87.63992602
BOB'S LIQUORS & GROCERIES,957,86492,10001,A,5069 W MADISON ST,60644,AUSTIN,25,28,17031252201,1.70313E+14,41.88029609,-87.7524942
BOCKWINKELS,1491357,276156,7200,B,222 N COLUMBUS DR,60601,LOOP,32,42,17031320100,1.70313E+14,41.88633942,-87.62083615
BOULEVARD FOOD & LIQUOR LLC,1931999,336958,3350,B,5922 W IRVING PARK RD,60634,PORTAGE PARK,15,38,17031150402,1.70312E+14,41.95318259,-87.77525938
BROADWAY SUPERMARKET,50737,17352,15000,A,4879 N BROADWAY,60640,UPTOWN,3,48,17031031200,1.7031E+14,41.97117118,-87.65958098
BUDGET FINER FOODS,1337515,260726,3200,B,6604 N SHERIDAN RD,60626,ROGERS PARK,1,49,17031010502,1.7031E+14,42.00272611,-87.66093837
BURNHAM PLAZA MART,2014232,350131,2950,B,828 S WABASH AVE,60605,LOOP,32,2,17031320600,1.70313E+14,41.8714442,-87.62607513
BUSY BEE SUPERMARKET,1974525,343785,2500,B,5659 S ASHLAND AVE,60636,WEST ENGLEWOOD,67,16,17031670200,1.70317E+14,41.79048002,-87.66434507
BUY -N- SAVE,62460,19735,8000,B,209 E 103RD ST,60628,ROSELAND,49,9,17031490902,1.70315E+14,41.70713532,-87.61824173
CAESAR'S FOODS INC,13670,6312,10001,A,901 N DAMEN AVE,60622,WEST TOWN,24,32,17031242200,1.70312E+14,41.89777928,-87.67695887
"CALABRIA IMPORTS, INC.",1357606,264103,3100,B,1905 W 103RD ST,60643,BEVERLY,72,19,17031720700,1.70317E+14,41.70647332,-87.66935499
"CALMA OPTIMAL DELI, INC.",1991322,346718,3000,B,5155 W ADDISON ST,60641,PORTAGE PARK,15,38,17031151001,1.70312E+14,41.9458951,-87.75664585
CARNICERIA DEL RIO,1801493,314238,3000,B,2714 W CERMAK RD,60608,SOUTH LAWNDALE,30,28,17031840700,1.70318E+14,41.85203474,-87.69369691
CARNICERIA EL PORVENIR,1768971,311076,2500,B,150 E KENSINGTON AVE,60628,WEST PULLMAN,53,9,17031530100,1.70315E+14,41.6840632,-87.61874297
CARNICERIA GUANAJUATO,2069477,358374,9325,B,5250 W FULLERTON AVE,60639,BELMONT CRAGIN,19,31,17031190702,1.70312E+14,41.92418915,-87.75822974
CARNICERIA GUANAJUATO #3,2060960,357299,9000,B,3132 N CALIFORNIA AVE,60618,AVONDALE,21,33,17031210800,1.70312E+14,41.93856972,-87.69794595
CARNICERIA GUANJUATO #3,17340,63206,8800,B,1436 N ASHLAND AVE,60622,WEST TOWN,24,1,17031241500,1.70312E+14,41.90811537,-87.66776383
CARNICERIA JIMENEZ #2,48081,16943,19000,A,3850 W FULLERTON AVE,60647,LOGAN SQUARE,22,30,17031220701,1.70312E+14,41.92462832,-87.72395332
CARNICERIA JIMENEZ INC,1693,85292,16000,A,4204 W NORTH AVE,60639,HUMBOLDT PARK,23,30,17031230500,1.70312E+14,41.90992525,-87.73155722
CARNICERIA LA AZTECA,1354069,262231,2500,B,7067 N CLARK ST,60626,ROGERS PARK,1,49,17031010702,1.7031E+14,42.01096295,-87.67421466
CARNICERIA LA GLORIA,1471030,271545,6500,B,2551 W 51ST ST,60632,GAGE PARK,63,14,17031630500,1.70316E+14,41.80096928,-87.6887221
"CARNICERIA LA GLORIA NO. 2, INC.",1514813,279304,7500,B,2744 W 55TH ST,60632,GAGE PARK,63,14,17031630500,1.70316E+14,41.79381183,-87.6931506
"CARNICERIA LA HACIENDA, INC.",1492826,276948,4000,B,3459 W 59TH ST,60629,CHICAGO LAWN,66,16,17031660400,1.70317E+14,41.7860244,-87.71060478
"CARNICERIA LA MEJOR PRODUCE, INC.",1800292,313836,4500,B,2915 N MILWAUKEE AVE,60618,AVONDALE,21,35,17031210602,1.70312E+14,41.9343144,-87.715772
CARNICERIA LA VILLA #2,2060542,357089,3289,B,5800 W GRAND AVE,60639,BELMONT CRAGIN,19,37,17031191302,1.70312E+14,41.9197749,-87.77072653
CARNICERIA RICARDO,35191,15006,5000,B,4419 W DIVERSEY AVE,60639,HERMOSA,20,31,17031200200,1.70312E+14,41.93154075,-87.73757251
CARNICERIA&FRUTERIA EL MITOTE,49322,17160,4500,B,4459 W BELMONT AVE,60641,HERMOSA,20,31,17031200100,1.70312E+14,41.93881951,-87.7394338
CENTRAL PARK FOODS INC,13813,6373,8000,B,3604 W GRAND AVE,60651,HUMBOLDT PARK,23,26,17031231200,1.70312E+14,41.90247367,-87.71681747
CENTRO MARKET,66257,20469,9100,B,5153 S KEDZIE AVE,60632,GAGE PARK,63,14,17031630400,1.70316E+14,41.79925704,-87.70357471
CERMAK PRODUCE,53313,17784,10000,A,4800 W DIVERSEY AVE,60639,BELMONT CRAGIN,19,31,17031190200,1.70312E+14,41.93164142,-87.74671991
CERMAK PRODUCE,1574003,286531,14000,A,4401 W ARMITAGE AVE,60639,HERMOSA,20,31,17031831200,1.70318E+14,41.91693444,-87.73638715
CERMAK PRODUCE,1476657,273150,15000,A,1711 W CERMAK RD,60608,LOWER WEST SIDE,31,25,17031843200,1.70318E+14,41.85216786,-87.66897504
CERMAK PRODUCE,1770942,311980,17000,A,3311 W 26TH ST,60623,SOUTH LAWNDALE,30,22,17031840800,1.70318E+14,41.84436673,-87.70789805
CERMAK PRODUCE,1515206,279468,25000,A,5220 S PULASKI RD,60632,WEST ELSDON,62,23,17031620200,1.70316E+14,41.79799187,-87.72344374
CERMAK PRODUCE,1476654,273149,29000,A,4234 N KEDZIE AVE,60618,IRVING PARK,16,33,17031160501,1.70312E+14,41.95859672,-87.70830958
CERMAK PRODUCE #5 LTD,1649774,298958,10000,A,3435 S ARCHER AVE,60608,MCKINLEY PARK,59,11,17031840300,1.70318E+14,41.8313499,-87.67584785
CERMAK PRODUCE NO.4,69608,21223,17000,A,2701 W NORTH AVE,60647,WEST TOWN,24,26,17031241000,1.70312E+14,41.91013224,-87.69460039
CHARLIES  SUPERMARKET INC.,1441898,268397,2500,B,2941 W MONTROSE AVE,60618,IRVING PARK,16,33,17031160601,1.70312E+14,41.96111443,-87.70258694
CHATHAM FOOD MARKET,1904290,331037,4500,B,327 E 79TH ST,60619,CHATHAM,44,6,17031440300,1.70314E+14,41.75097268,-87.61695788
CHICAGO FOOD CORP,1169745,11429,10000,A,5800 N PULASKI RD,60646,NORTH PARK,13,39,17031130200,1.70311E+14,41.98592799,-87.72866342
CHICAGO GROCERS,1332221,258200,2500,B,2122 W DEVON AVE,60659,WEST RIDGE,2,50,17031020500,1.7031E+14,41.99794589,-87.68356871
Chicago Health - Maple Street,2065274,357879,2900,B,22 W MAPLE ST,60610,NEAR NORTH SIDE,8,42,17031081100,1.70311E+14,41.90198255,-87.6292631
CHICAGO PRODUCE,1865,368,13500,A,3500 W LAWRENCE AVE,60625,ALBANY PARK,14,39,17031140200,1.70311E+14,41.96848537,-87.71587133
CICERO DELI INC.,20884,8639,3600,B,3206 N CICERO AVE,60641,PORTAGE PARK,15,30,17031151002,1.70312E+14,41.93904667,-87.74702197
CITY GROCERY,1979483,344633,5000,B,405 N WABASH AVE,60611,NEAR NORTH SIDE,8,42,17031081500,1.70311E+14,41.88946533,-87.62650927
CLARENDON FOOD MART INC,29515,11687,10000,A,4183 N CLARENDON AVE,60613,UPTOWN,3,46,17031031400,1.7031E+14,41.9580048,-87.64965374
CLYBOURN MARKET,40522,15968,3500,B,2807 N CLYBOURN AVE,60618,NORTH CENTER,5,1,17031051400,1.70311E+14,41.93257918,-87.67832746
COMMERCIAL GROCERY,56894,23932,2500,B,3004 E 100TH ST,60617,SOUTH DEERING,51,10,17031510100,1.70315E+14,41.71349784,-87.55073311
CORCORANS PANTRY INC,9412,4333,4200,B,1105 W BRYN MAWR AVE,60660,EDGEWATER,77,48,17031030701,1.7031E+14,41.98354479,-87.65826767
COTTAGE GROVE FOOD MART,1898994,329883,4000,B,6307 S COTTAGE GROVE AVE,60637,WOODLAWN,42,20,17031420800,1.70314E+14,41.78015196,-87.60577752
COUNTY FAIR FOODS,37096,15344,10001,A,10800 S WESTERN AVE,60643,MORGAN PARK,75,19,17031750300,1.70318E+14,41.69723821,-87.6814748
CRESPO'S FOOD MART,40132,15902,2800,B,4353 W MADISON ST,60624,WEST GARFIELD PARK,26,28,17031260600,1.70313E+14,41.880505,-87.73512285
CUENCA'S BAKERY & GROCERIES,1619464,292181,4500,B,4229 W MONTROSE AVE,60641,IRVING PARK,16,38,17031160300,1.70312E+14,41.96076752,-87.73394693
CUPBOARD FOOD & LIQUOR,7110,3758,3000,B,3260 W 55TH ST,60632,GAGE PARK,63,14,17031630300,1.70316E+14,41.79358918,-87.70594578
D & A FOOD & LIQUOR,46444,7945,5500,B,1601 W GARFIELD BLVD,60636,WEST ENGLEWOOD,67,15,17031670300,1.70317E+14,41.79355436,-87.66463755
DANNY'S FRESH MARKET,1888080,326926,14405,A,2140 N WESTERN AVE,60647,LOGAN SQUARE,22,1,17031221500,1.70312E+14,41.92109627,-87.68767101
DEVON MARKET,1042888,201952,18500,A,1440 W DEVON AVE,60660,ROGERS PARK,1,40,17031010600,1.7031E+14,41.99822825,-87.66710447
DIA FOOD & LIQUOR,41854,16133,4500,B,1478 W 115TH ST,60643,MORGAN PARK,75,34,17031750600,1.70318E+14,41.6849558,-87.65972583
DILILAH GROCERY,1986580,346168,3125,B,1759 W 21ST ST,60608,LOWER WEST SIDE,31,25,17031310800,1.70313E+14,41.85396788,-87.67087019
DISCOUNT MEAT COMPANY,13820,6377,4160,B,339 W 79TH ST,60620,CHATHAM,44,17,17031842400,1.70318E+14,41.75068744,-87.63338093
DISCOUNT PANTRY CORPORATION,32952,14616,3600,B,4153 W 63RD ST,60629,WEST LAWN,65,13,17031650301,1.70317E+14,41.77849291,-87.72732752
DOLLAR & LINEN,1875260,46290,5800,B,1853 W 87TH ST,60620,AUBURN GRESHAM,71,21,17031711300,1.70317E+14,41.73558907,-87.66995173
DOLLAR DEALS & UP,1276566,252997,2500,B,2057 N PULASKI RD,60639,HERMOSA,20,30,17031200402,1.70312E+14,41.91889126,-87.72646532
DOMINICK'S,1969836,5033,59488,A,6623 N DAMEN AVE,60645,WEST RIDGE,2,50,17031020500,1.7031E+14,42.00222338,-87.68012883
DOMINICK'S # 1100,41629,5033,10001,A,3145 S ASHLAND AVE,60608,MCKINLEY PARK,59,11,17031840400,1.70318E+14,41.83646835,-87.6655669
DOMINICK'S # 113/1113,41633,5033,10001,A,6312 N NAGLE AVE,60646,NORWOOD PARK,10,41,17031100200,1.70311E+14,41.99598529,-87.78763712
DOMINICK'S # 12/0012,41645,5033,10001,A,6009 N BROADWAY,60660,EDGEWATER,77,48,17031030101,1.7031E+14,41.99118175,-87.66015508
DOMINICK'S # 130/1130,41657,5033,10001,A,2101 E 71ST ST,60649,SOUTH SHORE,43,5,17031430600,1.70314E+14,41.76599,-87.57378734
DOMINICK'S # 304/2304,41617,5033,10001,A,2550 N CLYBOURN AVE,60614,LINCOLN PARK,7,32,17031070700,1.70311E+14,41.92787172,-87.67325881
DOMINICK'S # 86/1086,41625,5033,10001,A,3350 N WESTERN AVE,60618,NORTH CENTER,5,47,17031843700,1.70318E+14,41.9427472,-87.68835432
DOMINICK'S #147/1147,41674,5033,68000,A,1340 S CANAL ST,60607,NEAR WEST SIDE,28,2,17031841900,1.70318E+14,41.86452119,-87.6393041
DOMINICK'S #153/2153,41678,5033,68000,A,424 W DIVISION ST,60610,NEAR NORTH SIDE,8,27,17031080400,1.70311E+14,41.90388396,-87.6394372
DOMINICK'S #160/1698,41689,5033,72000,A,1763 W HOWARD ST,60626,ROGERS PARK,1,49,17031010202,1.7031E+14,42.01928855,-87.67505851
Dominick's #1703,1574461,5033,49320,A,255 E GRAND AVE,60611,NEAR NORTH SIDE,8,42,17031081403,1.70311E+14,41.89168984,-87.62044413
DOMINICK'S #1875,1273445,5033,39000,A,1 N HALSTED ST,60661,NEAR WEST SIDE,28,27,17031280100,1.70313E+14,41.88181563,-87.64721472
DOMINICKS #2889,2042084,5033,48735,A,5233 N LINCOLN AVE,60625,LINCOLN SQUARE,4,40,17031040202,1.7031E+14,41.9768951,-87.69227967
DOMINICKS #2890,2042094,5033,55129,A,5201 N SHERIDAN RD,60640,EDGEWATER,77,48,17031030706,1.7031E+14,41.97648167,-87.65483978
DOMINICK'S FINER FOODS - STORE # 2775,1820382,5033,54963,A,2021 W CHICAGO AVE,60622,WEST TOWN,24,1,17031243000,1.70312E+14,41.89578523,-87.67793089
"DOMINICK'S Finer Foods, Inc. #1695",41682,5033,26819,A,959 W FULLERTON AVE,60614,LINCOLN PARK,7,43,17031071100,1.70311E+14,41.92526828,-87.65348756
E.M. GROCERIES,4863,3289,4500,B,5358 S CARPENTER ST,60609,NEW CITY,61,16,17031612000,1.70316E+14,41.79612897,-87.6514349
EDDIE & SON FOOD &LIQ.,4146,3169,2500,B,3624 W NORTH AVE,60647,HUMBOLDT PARK,23,26,17031230400,1.70312E+14,41.91009267,-87.71757535
EDDIE'S FOOD MART,50432,17311,4500,B,1858 W 63RD ST,60636,WEST ENGLEWOOD,67,15,17031670600,1.70317E+14,41.77946116,-87.67143667
"EDDIE'S SUNSHINE FOOD & LIQUOR,  INC.",24217,63476,3000,B,10806 S MICHIGAN AVE,60628,ROSELAND,49,9,17031490901,1.70315E+14,41.69781792,-87.621011
EDDY'S FOOD MART,1879269,324962,4000,B,7575 N ROGERS AVE,60626,ROGERS PARK,1,49,17031010300,1.7031E+14,42.01916463,-87.66839729
EDGEWATER PRODUCE,16765,6928,7400,B,5509 N CLARK ST,60640,EDGEWATER,77,48,17031030800,1.7031E+14,41.98197138,-87.66832103
EL  PASEO  BORICUA,1301216,254645,3000,B,2706 W DIVISION ST,60622,WEST TOWN,24,26,17031242600,1.70312E+14,41.9030542,-87.69477042
EL BARRIO GROCERY,42681,16221,10001,A,3938 W NORTH AVE,60647,HUMBOLDT PARK,23,30,17031230400,1.70312E+14,41.91000804,-87.72543846
EL MILAGRO,43513,2718,5500,B,3048 W 26TH ST,60623,SOUTH LAWNDALE,30,12,17031300900,1.70313E+14,41.84468733,-87.70210294
EL YUNQUE FOOD & LIQUOR,1986802,346323,2500,B,1900 N CALIFORNIA AVE,60647,LOGAN SQUARE,22,35,17031222500,1.70312E+14,41.91576102,-87.69729581
EMILIO'S PRODUCE,1675623,298914,2500,B,2294 N MILWAUKEE AVE,60647,LOGAN SQUARE,22,1,17031221400,1.70312E+14,41.92259747,-87.69709763
EUROPA GALLERIA INC,1299537,253902,6500,B,340 W SUPERIOR ST,60610,NEAR NORTH SIDE,8,42,17031081800,1.70311E+14,41.89566277,-87.63722072
EXTRA VALUE FOOD & LIQUOR,1823321,319024,5000,B,6257 S ASHLAND AVE,60636,WEST ENGLEWOOD,67,16,17031670800,1.70317E+14,41.77961467,-87.66407749
"MY RANCH, INC.",1899688,20694,8500,B,4650 N SHERIDAN RD,60640,UPTOWN,3,46,17031830700,1.7031E+14,41.96697757,-87.65494464
FAIRPLAY FINER FOOD,10940,86481,10001,A,2200 S WESTERN AVE,60608,LOWER WEST SIDE,31,25,17031841300,1.70318E+14,41.85198384,-87.6857857
FAIRPLAY FINER FOODS INC,10949,86481,10001,A,4640 S HALSTED ST,60609,NEW CITY,61,11,17031842600,1.70318E+14,41.80962977,-87.64570757
FAIRPLAY FOODS INC,10947,86481,18500,A,2323 W 111TH ST,60643,MORGAN PARK,75,19,17031750500,1.70318E+14,41.6916792,-87.67977917
FAIRWAY FOOD,2031993,352796,3000,B,2900 E 79TH ST,60649,SOUTH SHORE,43,7,17031431301,1.70314E+14,41.75200539,-87.55401542
FAMILY PRIDE,77270,22785,12500,A,10601 S PULASKI RD,60655,MOUNT GREENWOOD,74,19,17031740200,1.70317E+14,41.70035527,-87.7205409
FARM SUPER MARKET,2017764,339512,3000,B,2255 W DEVON AVE,60659,WEST RIDGE,2,50,17031020901,1.7031E+14,41.99766696,-87.68721346
FIESTA SUPERMARCADO,1196305,221943,14500,A,3307 W 63RD ST,60629,CHICAGO LAWN,66,15,17031660500,1.70317E+14,41.77881858,-87.70590358
FIRST CHOICE MARKET,1969290,342952,10000,A,3019 E 91ST ST,60617,SOUTH CHICAGO,46,10,17031461000,1.70315E+14,41.72997787,-87.55038259
FIVE STAR CERTIFIED INC,7168,3771,5000,B,935 W 87TH ST,60620,AUBURN GRESHAM,71,21,17031711400,1.70317E+14,41.73590841,-87.64742288
FOOD 4 LESS,1884255,251246,58000,A,4821 W NORTH AVE,60639,AUSTIN,25,37,17031250800,1.70313E+14,41.90950515,-87.74695994
FOOD 4 LESS,1928152,251246,63506,A,112 W 87TH ST,60620,CHATHAM,44,21,17031842400,1.70318E+14,41.73638005,-87.62750922
Food 4 Less Midwest,1596210,251246,62000,A,7030 S ASHLAND AVE,60636,WEST ENGLEWOOD,67,17,17031671500,1.70317E+14,41.76579077,-87.66396689
FOOD 4 LESS MIDWEST #789,1272529,251246,64486,A,4620 S DAMEN AVE,60609,NEW CITY,61,12,17031610300,1.70316E+14,41.80966853,-87.6751157
FOOD BASKET,1682475,291625,2500,B,7205 S HALSTED ST,60621,ENGLEWOOD,68,17,17031681300,1.70317E+14,41.7631812,-87.64421502
FOODSMART,46295,16644,3500,B,3415 W DIVERSEY AVE,60647,LOGAN SQUARE,22,35,17031220602,1.70312E+14,41.93185278,-87.71290125
FOODSMART,1474028,272175,13800,A,2901 W ARMITAGE AVE,60647,LOGAN SQUARE,22,35,17031222500,1.70312E+14,41.91735855,-87.69934107
FRESH BUY FOODS INC,23640,9535,26000,A,6319 S VERNON AVE,60637,WOODLAWN,42,20,17031420700,1.70314E+14,41.77966465,-87.61425094
FRESH FARMS INTERNATIONAL,30144,12018,9500,B,2626 W DEVON AVE,60659,WEST RIDGE,2,50,17031020602,1.7031E+14,41.99773591,-87.69592888
FRESH MARKET PLACE,1382145,266140,20000,A,2600 N CENTRAL AVE,60639,BELMONT CRAGIN,19,30,17031190602,1.70312E+14,41.92764768,-87.76626652
FRUTERIA EL MERCADO,21239,8832,5500,B,2759 S SPAULDING AVE,60623,SOUTH LAWNDALE,30,22,17031840800,1.70318E+14,41.84093316,-87.70722418
FURTERIA EL SERRANITO,2031979,352794,2500,B,1755 W 38TH ST,60609,MCKINLEY PARK,59,11,17031590700,1.70316E+14,41.82486062,-87.67002302
GAYTAN GROCERY STORE,85044,81586,3500,B,2802 S KOLIN AVE,60623,SOUTH LAWNDALE,30,22,17031301801,1.70313E+14,41.84030863,-87.73310706
GEMELOS FOOD/ CHECK CASHING SERVICES,1045757,203580,6600,B,4300 S MOZART ST,60632,BRIGHTON PARK,58,14,17031580502,1.70316E+14,41.815432,-87.69579779
GENE'S SAUSAGE SHOP & DELI INC,1876,371,5000,B,5330 W BELMONT AVE,60641,PORTAGE PARK,15,38,17031151100,1.70312E+14,41.93876197,-87.76040707
GENES SAUSAGE SHOP AT DELI MEYER,1922145,335302,6000,B,4746 N LINCOLN AVE,60625,LINCOLN SQUARE,4,47,17031040600,1.7031E+14,41.96775366,-87.68817172
GILMART'S  FOOD & LIQUOR,22715,9350,10001,A,5044 S ARCHER AVE,60632,ARCHER HEIGHTS,57,14,17031570300,1.70316E+14,41.80140003,-87.72604374
GOLDMORE FOOD,34046,14804,2500,B,1949 W 51ST ST,60609,NEW CITY,61,16,17031611700,1.70316E+14,41.80112781,-87.67408034
GRAND FOOD MARKET,1221783,223107,3952,B,5202 W GRAND AVE,60639,BELMONT CRAGIN,19,37,17031191200,1.70312E+14,41.91706775,-87.75604133
"GRAND PALACE SUPERMARKET, INC",49648,17200,3000,B,7131 S STATE ST,60619,GREATER GRAND CROSSING,69,6,17031691000,1.70317E+14,41.76457363,-87.62473997
"H & A FOOD MARKET, INC.",1379268,217567,2500,B,1007 W 63RD ST,60621,ENGLEWOOD,68,16,17031681000,1.70317E+14,41.77956458,-87.64997484
H & Z GROCERY STORE,3166,2823,10001,A,3638 W WRIGHTWOOD AVE,60647,LOGAN SQUARE,22,35,17031220702,1.70312E+14,41.92834525,-87.7186709
HALAL MEAT & GROCERY,55665,18191,2500,B,1414 W DEVON AVE,60660,ROGERS PARK,1,40,17031010600,1.7031E+14,41.99823739,-87.6661711
HAPPY FOODS,1618660,294177,11000,A,6783 N NORTHWEST HWY,60631,EDISON PARK,9,41,17031090200,1.70311E+14,42.00439926,-87.81848576
HAPPY FOODS,1618656,294177,11500,A,6415 N CENTRAL AVE,60646,FOREST GLEN,12,45,17031120200,1.70311E+14,41.99786001,-87.7634458
HARBOR MARKET,44759,16473,4200,B,155 N HARBOR DR,60601,LOOP,32,42,17031320100,1.70313E+14,41.88475054,-87.61560396
HAREER FOOD & LIQUOR,52337,17625,2500,B,5452 S HALSTED ST,60609,NEW CITY,61,20,17031612100,1.70316E+14,41.7945591,-87.64531343
HARPER FOODS,57683,18537,3300,B,1455 E 57TH ST,60637,HYDE PARK,41,5,17031411100,1.70314E+14,41.79141057,-87.58953263
HARVESTIME FOODS,43697,16317,8750,B,2632 W LAWRENCE AVE,60625,LINCOLN SQUARE,4,40,17031040201,1.7031E+14,41.96867023,-87.69516275
Hegewisch Fruit Market Inc.,2020869,350864,7800,B,13209 S BALTIMORE AVE,60633,HEGEWISCH,55,10,17031550100,1.70316E+14,41.65518859,-87.54699942
HILLTOP LIQUORS MART,788,148,3200,B,10259 S MICHIGAN AVE,60628,ROSELAND,49,9,17031490800,1.70315E+14,41.70724797,-87.62005636
HOA NOM CO,8425,62866,4200,B,1101 W ARGYLE ST,60640,UPTOWN,3,48,17031031200,1.7031E+14,41.9731613,-87.65783318
HOLLYWOOD TOWER MKT,1858,62539,3000,B,5701 N SHERIDAN RD,60660,EDGEWATER,77,48,17031030604,1.7031E+14,41.98563842,-87.65509432
HONG KONG MARKET,1892499,64229,46300,A,520 W 24TH PL,60616,ARMOUR SQUARE,34,25,17031841100,1.70318E+14,41.84823717,-87.64095553
"HYDE PARK PRODUCE, LTD",1884100,325993,10000,A,1226 E 53RD ST,60615,HYDE PARK,41,4,17031410700,1.70314E+14,41.7995768,-87.59551292
IMPERIAL TOWER MARKET,22624,9323,6031,B,4250 N MARINE DR,60613,UPTOWN,3,46,17031031400,1.7031E+14,41.96001995,-87.64690603
INTERNATIONAL FOODS NW INC,1129,215,14000,A,4404 W FULLERTON AVE,60639,HERMOSA,20,31,17031200200,1.70312E+14,41.92447264,-87.73678951
INTERNATIONAL SUPERMARKET INC,16712,6917,7500,B,4556 S ASHLAND AVE,60609,NEW CITY,61,3,17031610400,1.70316E+14,41.81056568,-87.66517052
J & A ORIENTAL FOOD MART,30859,8995,10001,A,5755 W FULLERTON AVE,60639,BELMONT CRAGIN,19,37,17031191302,1.70312E+14,41.92379935,-87.77063324
J & J EUROPEAN DELI,21936,63361,3000,B,5960 W LAWRENCE AVE,60630,PORTAGE PARK,15,45,17031150401,1.70312E+14,41.9677648,-87.7770202
J AND P FINER FOODS,1567,299,4500,B,3501 W MONTROSE AVE,60618,IRVING PARK,16,33,17031160501,1.70312E+14,41.96098859,-87.71564632
J K & S FOOD & LIQUOR,1000978,32337,3024,B,503 W 59TH ST,60621,ENGLEWOOD,68,20,17031834600,1.70318E+14,41.78703907,-87.63781273
J R GROCERY STORE,5644,3466,10001,A,505 E 134TH ST,60827,RIVERDALE,54,9,17031540101,1.70315E+14,41.65176106,-87.60936661
JAMAICA FOOD & LIQUOR INC,22679,9341,2500,B,4252 S COTTAGE GROVE AVE,60653,GRAND BOULEVARD,38,4,17031380100,1.70314E+14,41.81702977,-87.60685792
JARDAN FOOD & LIQUOR,11226,5270,9500,B,317 E GARFIELD BLVD,60637,WASHINGTON PARK,40,3,17031400400,1.70314E+14,41.79432493,-87.61852061
JERUSALEM LIQUORS,440,80,4500,B,3133 W LAWRENCE AVE,60625,ALBANY PARK,14,33,17031140800,1.70311E+14,41.9683547,-87.70739432
JEWEL FOOD  STORE # 3345,1142451,259,60271,A,1224 S WABASH AVE,60605,NEAR SOUTH SIDE,33,2,17031330100,1.70313E+14,41.86672435,-87.62596115
JEWEL FOOD STORE,1953613,259,62603,A,11730 S MARSHFIELD AVE,60643,MORGAN PARK,75,34,17031750500,1.70318E+14,41.68033221,-87.66258468
JEWEL FOOD STORE #3030,1000572,259,31951,A,7530 S STONY ISLAND AVE,60649,SOUTH SHORE,43,5,17031834200,1.70318E+14,41.75780566,-87.58626826
JEWEL FOOD STORE #3043,1144384,259,37641,A,443 E 34TH ST,60616,DOUGLAS,35,4,17031351000,1.70314E+14,41.83304474,-87.61461136
JEWEL FOOD STORE #3057,1400,259,21785,A,6057 S WESTERN AVE,60636,CHICAGO LAWN,66,16,17031835000,1.70318E+14,41.78306114,-87.68359887
JEWEL FOOD STORE #3092,1411,259,10001,A,1655 E 95TH ST,60617,SOUTH DEERING,51,7,17031510300,1.70315E+14,41.7222632,-87.58291763
JEWEL FOOD STORE #3114,1388,259,20860,A,3128 W 103RD ST,60655,MOUNT GREENWOOD,74,19,17031740100,1.70317E+14,41.70631284,-87.69976712
JEWEL FOOD STORE #3139,1356,259,22295,A,3940 E 106TH ST,60617,EAST SIDE,52,10,17031520400,1.70315E+14,41.7028061,-87.52770401
JEWEL FOOD STORE #3170,1366,259,30374,A,5320 S PULASKI RD,60632,WEST ELSDON,62,23,17031620200,1.70316E+14,41.79619759,-87.72339188
JEWEL FOOD STORE #3176,1404,259,32294,A,9400 S ASHLAND AVE,60620,WASHINGTON HEIGHTS,73,21,17031730300,1.70317E+14,41.72294122,-87.66286287
JEWEL FOOD STORE #3181,1368,259,30745,A,87 W 87TH ST,60620,CHATHAM,44,21,17031842400,1.70318E+14,41.73614513,-87.62691784
JEWEL FOOD STORE #3210,1333,259,23845,A,1210 N CLARK ST,60610,NEAR NORTH SIDE,8,42,17031080202,1.70311E+14,41.90426523,-87.63160329
JEWEL FOOD STORE #3224,1144401,259,29299,A,6430 W IRVING PARK RD,60634,DUNNING,17,38,17031170100,1.70312E+14,41.95301023,-87.78770716
JEWEL FOOD STORE #3241,1398,259,24262,A,1341 N PAULINA ST,60622,WEST TOWN,24,1,17031241500,1.70312E+14,41.9062437,-87.66986228
JEWEL FOOD STORE #3282,1337,259,24922,A,4729 N CENTRAL AVE,60630,PORTAGE PARK,15,45,17031150300,1.70312E+14,41.96679711,-87.76729948
JEWEL FOOD STORE #3296,1392,259,29421,A,7342 W FOSTER AVE,60656,NORWOOD PARK,10,41,17031100500,1.70311E+14,41.97454295,-87.81134688
JEWEL FOOD STORE #3302,1402,259,25431,A,3644 S ARCHER AVE,60609,MCKINLEY PARK,59,11,17031590500,1.70316E+14,41.8275839,-87.68245444
JEWEL FOOD STORE #3344,1192905,259,63407,A,1220 S ASHLAND AVE,60608,NEAR WEST SIDE,28,2,17031842900,1.70318E+14,41.86625418,-87.66652414
JEWEL FOOD STORE #3349,1353385,259,64285,A,2520 N NARRAGANSETT AVE,60639,BELMONT CRAGIN,19,36,17031831500,1.70318E+14,41.92629696,-87.78569482
JEWEL FOOD STORE #3368,1226337,259,31600,A,550 N STATE ST,60610,NEAR NORTH SIDE,8,42,17031081600,1.70311E+14,41.89242137,-87.62823487
JEWEL FOOD STORE #3407,1394,259,19238,A,5516 N CLARK ST,60640,EDGEWATER,77,40,17031030900,1.7031E+14,41.98218988,-87.66865163
JEWEL FOOD STORE #3441,1375,259,22443,A,2940 N ASHLAND AVE,60657,LAKE VIEW,6,32,17031062600,1.70311E+14,41.93547203,-87.66865454
JEWEL FOOD STORE #3442,1406,259,29060,A,4042 W FOSTER AVE,60630,NORTH PARK,13,39,17031130200,1.70311E+14,41.97562411,-87.72984456
JEWEL FOOD STORE #3443,1323,259,25356,A,5343 N BROADWAY,60640,EDGEWATER,77,48,17031030703,1.7031E+14,41.97942825,-87.65980585
JEWEL FOOD STORE #3454,1325,259,25490,A,4250 N LINCOLN AVE,60618,NORTH CENTER,5,47,17031050200,1.70311E+14,41.95910043,-87.68239224
JEWEL FOOD STORE #3455,1380,259,23660,A,4355 N SHERIDAN RD,60613,UPTOWN,3,46,17031032100,1.7031E+14,41.96139778,-87.65459297
JEWEL FOOD STORE #3470,1382,259,24815,A,3570 N ELSTON AVE,60618,AVONDALE,21,35,17031831100,1.70318E+14,41.9460576,-87.70823011
JEWEL FOOD STORE #3477,1372,259,17676,A,4734 N CUMBERLAND AVE,60656,OHARE,76,36,17031760802,1.70318E+14,41.9660114,-87.83683117
JEWEL FOOD STORE #3501,1192909,259,56010,A,3400 N WESTERN AVE,60618,NORTH CENTER,5,47,17031843700,1.70318E+14,41.94318737,-87.68830202
JEWEL FOOD STORE #3514,1385,259,20285,A,3531 N BROADWAY,60657,LAKE VIEW,6,46,17031061800,1.70311E+14,41.94638465,-87.64652486
JEWEL FOOD STORE #3721,1225534,259,49513,A,6107 S ARCHER AVE,60638,GARFIELD RIDGE,56,23,17031560800,1.70316E+14,41.79435485,-87.77052715
JEWEL FOOD STORES #3262,1409,259,35000,A,4660 W IRVING PARK RD,60641,PORTAGE PARK,15,45,17031831700,1.70318E+14,41.95355444,-87.74505531
JEWEL-OSCO #3632,2037181,259,62349,A,3630 N SOUTHPORT AVE,60613,LAKE VIEW,6,44,17031060400,1.70311E+14,41.94800455,-87.66418623
JOE'S FOOD & LIQUOR,822,154,3500,B,3626 W LAWRENCE AVE,60625,ALBANY PARK,14,39,17031140301,1.70311E+14,41.96844525,-87.71941658
JOE'S FOOD AND LIQUOR DEPOT,1575140,286898,4000,B,5834 W FULLERTON AVE,60639,BELMONT CRAGIN,19,30,17031190602,1.70312E+14,41.92399183,-87.77228911
JOLANTA'S INTERNATIONAL DELI,26376,10856,10001,A,5914 W HIGGINS AVE,60630,JEFFERSON PARK,11,45,17031110400,1.70311E+14,41.9727915,-87.77637186
JOSEPH FOOD MART,6157,62754,3000,B,8235 W IRVING PARK RD,60634,DUNNING,17,36,17031170500,1.70312E+14,41.95201856,-87.83316684
K & K FOOD & LIQUOR,62092,23937,4200,B,1130 W 51ST ST,60609,NEW CITY,61,16,17031611000,1.70316E+14,41.80157684,-87.65378847
K BUENA,1999075,65396,3500,B,4322 W MARQUETTE RD,60629,WEST LAWN,65,13,17031650301,1.70317E+14,41.77138332,-87.73095337
KAMDAR PLAZA INC,4429,3241,5500,B,2646 W DEVON AVE,60659,WEST RIDGE,2,50,17031020602,1.7031E+14,41.9977219,-87.6966411
"Kan-Zaman Mart, Inc.",1119908,209575,4600,B,2005 S MICHIGAN AVE,60616,NEAR SOUTH SIDE,33,2,17031330100,1.70313E+14,41.85531767,-87.62372652
KAPS FOODS,57817,18562,4100,B,3557 S CALIFORNIA AVE,60632,BRIGHTON PARK,58,12,17031580100,1.70316E+14,41.82838364,-87.69462017
KEY FOOD LIQUOR,17551,7109,3800,B,13355 S INDIANA AVE,60827,RIVERDALE,54,9,17031540101,1.70315E+14,41.65197282,-87.61708374
KHALIL FOOD & LIQUOR,46846,16717,3000,B,146 W 103RD ST,60628,ROSELAND,49,9,17031490700,1.70315E+14,41.70721814,-87.62775156
KING FOOD & LIQUOR,40321,2926,3750,B,6858 S HALSTED ST,60621,ENGLEWOOD,68,6,17031681100,1.70317E+14,41.7689263,-87.644656
KOL TUV KOSHER FOODS INC,12952,6158,3000,B,2938 W DEVON AVE,60659,WEST RIDGE,2,50,17031020601,1.7031E+14,41.99760128,-87.70361267
KORDIAN'S MARKET,28114,11448,4610,B,6332 W HIGGINS AVE,60630,JEFFERSON PARK,11,45,17031110300,1.70311E+14,41.97598405,-87.78656131
"KRAKUS DELI,  INC",1222467,229704,3500,B,5155 W ADDISON ST,60641,PORTAGE PARK,15,38,17031151001,1.70312E+14,41.9458951,-87.75664585
LA CASA DEL PUEBLO INC,31675,14392,10001,A,1810 S BLUE ISLAND AVE,60608,LOWER WEST SIDE,31,25,17031310600,1.70313E+14,41.85745275,-87.66168833
LA CIENEGA SUPER FOOD INC,65173,20310,10000,A,10736 S EWING AVE,60617,EAST SIDE,52,10,17031520300,1.70315E+14,41.69981485,-87.53542689
LA FERIA GROCERY,26609,11067,10001,A,9704 S COMMERCIAL AVE,60617,SOUTH DEERING,51,10,17031510100,1.70315E+14,41.71891216,-87.5511743
LA GUERRERENSE,67114,43885,3000,B,4149 W ARMITAGE AVE,60639,HERMOSA,20,30,17031831200,1.70318E+14,41.917,-87.73098926
LA INTERNATIONAL,57700,18542,3000,B,4301 S ARCHER AVE,60632,BRIGHTON PARK,58,14,17031580502,1.70316E+14,41.81530069,-87.7020416
LA JALISCIENCE,4749,23661,3000,B,3239 W 26TH ST,60623,SOUTH LAWNDALE,30,22,17031840800,1.70318E+14,41.84438799,-87.7064971
"LA LOMA ""CARNICERIA Y TAQUERIA""",49880,17241,4501,B,2535 N LARAMIE AVE,60639,BELMONT CRAGIN,19,31,17031190800,1.70312E+14,41.92703609,-87.75610618
LA MERCED INC,6834,3685,10001,A,4335 W 26TH ST,60623,SOUTH LAWNDALE,30,22,17031301801,1.70313E+14,41.8440328,-87.73243286
"LA NUEVA IMAGEN GROCERY, INC.",1804216,315282,3000,B,2459 S MILLARD AVE,60623,SOUTH LAWNDALE,30,22,17031300600,1.70313E+14,41.8462971,-87.71591643
LA PERLA TAPATIA BAKERY,1698,85292,3000,B,4214 W NORTH AVE,60639,HUMBOLDT PARK,23,30,17031230500,1.70312E+14,41.90991975,-87.73197126
LA PLAMA,22662,63389,15000,A,4173 S ARCHER AVE,60632,BRIGHTON PARK,58,14,17031580501,1.70316E+14,41.81757931,-87.69832059
LA PROVIDENCIA FOOD MART,16986,6991,2572,B,1658 W 21ST ST,60608,LOWER WEST SIDE,31,25,17031310800,1.70313E+14,41.85421937,-87.66845816
"LA UNICA FOOD MART, INC.",491,90,5000,B,1515 W DEVON AVE,60660,EDGEWATER,77,40,17031030200,1.7031E+14,41.99799346,-87.66842789
LAKE VIEW FOODS INC,2055,408,3100,B,4106 N SHERIDAN RD,60613,UPTOWN,3,46,17031032100,1.7031E+14,41.9570403,-87.65476289
L'APPETITO,42672,16220,2900,B,875 N MICHIGAN AVE,60611,NEAR NORTH SIDE,8,42,17031081300,1.70311E+14,41.89894854,-87.62397499
LARAMIE BAKERY & DELI,2014141,350093,12331,A,3232 N HARLEM AVE,60634,DUNNING,17,36,17031170800,1.70312E+14,41.93898597,-87.80692906
"LATIN GROCERY & LIQUOR, INC",20046,8064,10001,A,3800 W NORTH AVE,60647,HUMBOLDT PARK,23,30,17031230400,1.70312E+14,41.91004942,-87.72145808
LAWNDALE FOOD MARKET,39529,15829,6000,B,3705 W 16TH ST,60623,NORTH LAWNDALE,29,24,17031292200,1.70313E+14,41.85883397,-87.71786719
Laxi Liquor,47780,11112,3200,B,6922 W GRAND AVE,60707,MONTCLARE,18,36,17031831600,1.70318E+14,41.9236807,-87.79867613
LEMEN SUN CORP.,28022,11427,3600,B,2832 S WENTWORTH AVE,60616,ARMOUR SQUARE,34,11,17031340400,1.70313E+14,41.84160448,-87.6319155
LINDO MICHOACAN,42744,86194,8600,B,3142 W LAWRENCE AVE,60625,ALBANY PARK,14,33,17031140100,1.70311E+14,41.96857277,-87.7077877
LOGAN CERTIFIED FOODS CORP,1046303,23391,4500,B,2857 W DIVERSEY AVE,60647,LOGAN SQUARE,22,35,17031220400,1.70312E+14,41.93197047,-87.69993162
LORETO GROCERY,76774,22681,4499,B,4600 S FAIRFIELD AVE,60632,BRIGHTON PARK,58,12,17031842800,1.70318E+14,41.81000148,-87.69318135
LOS CUATRO HERMANOS GROCERY,7790,62837,10001,A,1858 S ALLPORT ST,60608,LOWER WEST SIDE,31,25,17031310600,1.70313E+14,41.85620222,-87.65774497
LOS POTRILLOS,1650212,299177,7000,B,3624 W BELMONT AVE,60618,AVONDALE,21,35,17031831100,1.70318E+14,41.93930952,-87.71853994
LOS SAUCES GROCERY,1223250,230035,2800,B,5852 W DIVERSEY AVE,60639,BELMONT CRAGIN,19,30,17031190402,1.70312E+14,41.9312882,-87.77324145
LUCIANO'S GROCERY-18TH ST,1380524,265429,6000,B,1714 W 18TH ST,60608,LOWER WEST SIDE,31,25,17031310800,1.70313E+14,41.85785657,-87.6694196
LUX 2 FOOD & LIQUOR,1869021,322813,2500,B,7550 S MAY ST,60620,AUBURN GRESHAM,71,17,17031710200,1.70317E+14,41.7561627,-87.6528196
M & D VARIETY STORE,18355,7524,4500,B,1300 W 111TH ST,60643,MORGAN PARK,75,34,17031750100,1.70318E+14,41.69231963,-87.65466321
M & J LIQUOR & GROCERY,15168,6639,2900,B,3654 W LAWRENCE AVE,60625,ALBANY PARK,14,39,17031140301,1.70311E+14,41.96843458,-87.72048101
MACIAS PRODUCE INC.,1648017,297549,7000,B,8933 S COMMERCIAL AVE,60617,SOUTH CHICAGO,46,10,17031833900,1.70318E+14,41.73273359,-87.55117278
MAKOLA AFRICAN SUPERMARKET #2,2008279,279945,3500,B,4501 N SHERIDAN RD,60640,UPTOWN,3,46,17031031502,1.7031E+14,41.96365028,-87.65462219
MANDY'S LIQUOR,17168,7030,3000,B,1957 W LAWRENCE AVE,60640,LINCOLN SQUARE,4,47,17031830800,1.70318E+14,41.96865614,-87.67843848
MARIO 'S BUTCHER SHOP FD CNTR,4248,85432,10001,A,5817 W MADISON ST,60644,AUSTIN,25,29,17031252101,1.70313E+14,41.88004498,-87.77049338
MARKET IN THE PARK,1334026,258947,5049,B,5050 S LAKE SHORE DR,60615,KENWOOD,39,4,17031390700,1.70314E+14,41.80287978,-87.58184369
MA'S & PA'S GROCERY SNACK SHOP,7302,3806,4500,B,804 S CALIFORNIA AVE,60612,EAST GARFIELD PARK,27,2,17031271800,1.70313E+14,41.87087764,-87.69616688
MAYFAIR MARKET PLACE,1948869,340165,12000,A,4728 N PULASKI RD,60630,ALBANY PARK,14,39,140500,1.70311E+14,41.96726667,-87.72814705
MAYFLOWER FOOD,1168793,17975,6000,B,2104 S ARCHER AVE,60616,ARMOUR SQUARE,34,25,17031841100,1.70318E+14,41.8542653,-87.63218951
MEHRAB ZABIHA MEAT & TOBACCO,1094121,207539,3000,B,2445 W DEVON AVE,60659,WEST RIDGE,2,50,17031020802,1.7031E+14,41.99759202,-87.69166812
MELISSA'S FOOD & LIQUORS INC,29494,11681,3500,B,3867 W GRAND AVE,60651,HUMBOLDT PARK,23,27,17031230700,1.70312E+14,41.90505945,-87.72395138
MI MEXICO GROCERY,1494240,277614,2600,B,2601 W 59TH ST,60629,CHICAGO LAWN,66,16,17031835000,1.70318E+14,41.78637634,-87.68877651
MIARA'S CONT'L PASTRY DELI INC,10400,4623,5000,B,7051 W ADDISON ST,60634,DUNNING,17,36,17031171000,1.70312E+14,41.94523382,-87.80292664
MICELI'S DELI & FOOD MART,44924,16493,4000,B,2448 S OAKLEY AVE,60608,LOWER WEST SIDE,31,25,17031841300,1.70318E+14,41.84702046,-87.68319955
MICHAELS FRESH MARKET,2043177,354856,41000,A,1300 E 47TH ST,60653,KENWOOD,39,4,17031390100,1.70314E+14,41.80977273,-87.59496089
MID TOWN FOODS,39968,15264,3520,B,3855 W DIVISION ST,60651,HUMBOLDT PARK,23,27,17031231200,1.70312E+14,41.90258387,-87.72361925
MINI MERCADO LA BETANIA,33473,3205,2640,B,2800 S TRIPP AVE,60623,SOUTH LAWNDALE,30,22,17031301803,1.70313E+14,41.84039654,-87.73067501
MLB FOOD,1884977,326392,2500,B,613 E 67TH ST,60637,WOODLAWN,42,20,17031421200,1.70314E+14,41.7729559,-87.61005781
MOO & OINK INC,11915,5928,21500,A,4848 W MADISON ST,60644,AUSTIN,25,28,17031251800,1.70313E+14,41.88058389,-87.74705294
"MORELIA SUPERMARKET #2, INC.",1648410,298039,12000,A,4833 W DIVERSEY AVE,60639,BELMONT CRAGIN,19,31,17031190800,1.70312E+14,41.93140629,-87.74793697
"MORELIA SUPERMARKET, INC.",1892862,243702,8000,B,7300 N WESTERN AVE,60645,WEST RIDGE,2,50,17031020200,1.7031E+14,42.01418398,-87.69037835
MORGAN FOOD CORP LLC,1270949,250439,3500,B,6600 S MORGAN ST,60621,ENGLEWOOD,68,17,17031681000,1.70317E+14,41.77412895,-87.649646
MOROLEON FOODS #2 INC.,1801622,314329,3025,B,4257 S ROCKWELL ST,60632,BRIGHTON PARK,58,12,17031580700,1.70316E+14,41.81577112,-87.6893859
MORSE FOOD AND MEAT MARKET,1518304,280735,17000,A,1430 W MORSE AVE,60626,ROGERS PARK,1,49,17031010600,1.7031E+14,42.00799492,-87.66717415
MOUNSEF INTERNATIONAL,21126,86704,10001,A,4738 N KEDZIE AVE,60625,ALBANY PARK,14,33,17031140701,1.70311E+14,41.96779309,-87.7086027
MR G'S FOOD & LIQUOR,1429,263,3000,B,332 E 58TH ST,60637,WASHINGTON PARK,40,20,17031400400,1.70314E+14,41.78942986,-87.61784034
MUNCHIES ON LARRABEE,2073925,210118,2500,B,1012 N LARRABEE ST,60610,NEAR NORTH SIDE,8,27,17031842200,1.70318E+14,41.90084859,-87.64325554
Municipal Foods,1478386,273724,9980,B,2559 W DIVISION ST,60622,WEST TOWN,24,26,17031242500,1.70312E+14,41.90285923,-87.69188858
NANCE FOOD MART,4756,3277,4500,B,10935 S WENTWORTH AVE,60628,ROSELAND,49,34,17031491000,1.70315E+14,41.69515316,-87.62782024
NANCY FOODS INC,79959,23327,2500,B,12315 S STATE ST,60628,WEST PULLMAN,53,9,17031530600,1.70315E+14,41.6702524,-87.62227196
NATIONAL FRUIT STOP,23627,9531,3000,B,3523 W LAWRENCE AVE,60625,ALBANY PARK,14,33,17031140701,1.70311E+14,41.96825564,-87.71687738
Natural Country Deli,2017781,350688,3500,B,6452 N MILWAUKEE AVE,60631,NORWOOD PARK,10,41,17031100200,1.70311E+14,41.99849297,-87.78909537
NAYAB MART,1444872,269649,3125,B,2449 W DEVON AVE,60659,WEST RIDGE,2,50,17031020802,1.7031E+14,41.99758912,-87.69183691
NEIL'S FOOD,1998505,221849,3500,B,7749 S HALSTED ST,60620,AUBURN GRESHAM,71,17,17031710100,1.70317E+14,41.75283042,-87.64395052
NEW LA ESTRELLA FOODS INC.,2003267,348383,5800,B,3003 W 63RD ST,60629,CHICAGO LAWN,66,15,17031660600,1.70317E+14,41.77893156,-87.69841709
NEW POP-IN,1719179,306063,8784,B,413 S KEDZIE AVE,60612,EAST GARFIELD PARK,27,28,17031271200,1.70313E+14,41.87542375,-87.70582036
NICKEL LIQUOR & MINI MART INC,22084,9178,10001,A,3637 W DIVISION ST,60651,HUMBOLDT PARK,23,27,17031231200,1.70312E+14,41.90263376,-87.71793124
NOOR MEAT,61680,19506,3000,B,2505 W DEVON AVE,60659,WEST RIDGE,2,50,17031020802,1.7031E+14,41.99757381,-87.6925486
NORTHWEST FOOD & LIQUOR,1119636,209419,3180,B,5170 W NORTH AVE,60639,AUSTIN,25,37,17031250200,1.70313E+14,41.9096149,-87.75547797
"OGIES FOOD, INC",26972,11210,10001,A,2600 W LITHUANIAN PLAZA CT,60629,CHICAGO LAWN,66,15,17031660900,1.70317E+14,41.76836584,-87.68830091
OHIO FOOD MART,1225367,243092,3500,B,5345 W OHIO ST,60644,AUSTIN,25,37,17031251500,1.70313E+14,41.89104929,-87.75973284
OLD WORLD MARKET,7507,3851,10001,A,5129 N BROADWAY,60640,UPTOWN,3,48,17031031200,1.7031E+14,41.9754754,-87.65969701
OLIVE MOUNT MART,1337266,205718,3000,B,3536 W 63RD ST,60629,CHICAGO LAWN,66,15,17031660400,1.70317E+14,41.77894012,-87.71186857
ONE STOP,2032029,352811,2500,B,4401 W MADISON ST,60624,WEST GARFIELD PARK,26,28,17031260500,1.70313E+14,41.88049945,-87.73559596
ONE STOP FOOD & LIQUOR STORE,1094,205,58000,A,4301 S LAKE PARK AVE,60653,KENWOOD,39,4,17031390100,1.70314E+14,41.81686515,-87.59868884
ORIENTAL ASIA MARKET INC.,1903198,330517,7500,B,4932 N SHERIDAN RD,60640,UPTOWN,3,46,17031031200,1.7031E+14,41.97255593,-87.65505767
ORLEANS MARKET,23467,9485,3002,B,316 W ILLINOIS ST,60610,NEAR NORTH SIDE,8,42,17031081800,1.70311E+14,41.89086429,-87.63632919
OSAMA FOOD MART,2031620,352625,2800,B,615 E 67TH ST,60637,WOODLAWN,42,20,17031421200,1.70314E+14,41.77295752,-87.6099734
OUTLET KINGDOM,2054475,356046,4000,B,3449 S HALSTED ST,60608,BRIDGEPORT,60,11,17031839700,1.70318E+14,41.83107494,-87.64597111
P & I FOOD & LIQUOR INC.,16647,6907,3000,B,4154 W DIVISION ST,60651,HUMBOLDT PARK,23,37,17031230600,1.70312E+14,41.90270681,-87.73101807
PAR BIRDIE FOODS,28222,11464,6000,B,2234 W DEVON AVE,60659,WEST RIDGE,2,50,17031020500,1.7031E+14,41.99790097,-87.68637822
"PARK FOODS OF 71ST STREET,INC.",1677517,300221,3500,B,2612 W 71ST ST,60629,CHICAGO LAWN,66,18,17031660900,1.70317E+14,41.76471714,-87.68875098
"PARK PACKING OF CHICAGO, INC.",2008956,340517,3500,B,1544 W 41ST ST,60609,NEW CITY,61,11,17031842600,1.70318E+14,41.81915944,-87.66423536
PARKSHORE MARKET LTD,26464,10858,2860,B,195 N HARBOR DR,60601,LOOP,32,42,17031320100,1.70313E+14,41.88617728,-87.6155996
PATEL BROS,25338,88729,5000,B,2610 W DEVON AVE,60659,WEST RIDGE,2,50,17031020602,1.7031E+14,41.9977473,-87.69525116
PAULINA MARKET,1680919,301699,10000,A,3501 N LINCOLN AVE,60657,LAKE VIEW,6,32,17031831900,,41.94525416,-87.67238979
PAULINA SUPER MARKET INC,4851,3286,7000,B,7622 N PAULINA ST,60626,ROGERS PARK,1,49,17031010100,1.7031E+14,42.02008732,-87.67323456
PEORIA PACKING LTD,33970,14795,8000,B,1300 W LAKE ST,60607,NEAR WEST SIDE,28,27,17031833000,1.70318E+14,41.88558042,-87.65895691
PERSONAL LIQUORS INC,8913,4189,6000,B,4241 W MADISON ST,60624,WEST GARFIELD PARK,26,28,17031260600,1.70313E+14,41.8805392,-87.73221604
PETERSON FOOD MART,1272746,251347,2500,B,2534 W PETERSON AVE,60659,WEST RIDGE,2,50,17031020802,1.7031E+14,41.99058521,-87.69353452
PETE'S FRESH MARKET,1598145,292834,50000,A,3448 E 118TH ST,60617,HEGEWISCH,55,10,17031550100,1.70316E+14,41.68105956,-87.53936754
PETE'S FRESH SUPERMARKET,1771242,312119,75000,A,2526 W CERMAK RD,60608,SOUTH LAWNDALE,30,28,17031840700,1.70318E+14,41.85210065,-87.68905111
PETE'S MARKET,36823,15303,10001,A,5724 S KEDZIE AVE,60629,GAGE PARK,63,14,17031630900,1.70316E+14,41.78911255,-87.70357973
PETE'S MEAT & GROCERY #2,1646096,296662,7500,B,2001 W 71ST ST,60636,WEST ENGLEWOOD,67,17,17031672000,1.70317E+14,41.76469612,-87.67359278
PETE'S PRODUCE,1476553,273114,5000,B,1543 E 87TH ST,60619,CALUMET HEIGHTS,48,8,17031480200,1.70315E+14,41.73679546,-87.58627251
PETE'S PRODUCE,1448266,271341,10000,A,1411 W 87TH ST,60620,AUBURN GRESHAM,71,21,17031711400,1.70317E+14,41.73574485,-87.65871771
POLONIA FOOD MART,6455,3630,10001,A,1956 W ARMITAGE AVE,60622,LOGAN SQUARE,22,32,17031832300,1.70318E+14,41.91787072,-87.67748062
POTASH BROS INC,19826,8018,10001,A,875 N STATE ST,60610,NEAR NORTH SIDE,8,42,17031081201,1.70311E+14,41.8988782,-87.62811115
POTASH BROS. SUPERMARKET,164,21,12000,A,1525 N CLARK ST,60610,NEAR NORTH SIDE,8,42,17031080201,1.70311E+14,41.91011794,-87.63149089
PRESTIGE LIQUORS,1883995,325934,2900,B,7104 S WESTERN AVE,60636,CHICAGO LAWN,66,18,17031661000,1.70317E+14,41.7644956,-87.68338427
PUERTO RICO FOOD & LIQUORS,2033049,353309,2500,B,2559 W AUGUSTA BLVD,60622,WEST TOWN,24,26,17031242500,1.70312E+14,41.89922158,-87.69173812
QUALITY FOOD ON 71 ST INC,76481,22614,3000,B,2557 W 71ST ST,60629,CHICAGO LAWN,66,18,17031661000,1.70317E+14,41.76451168,-87.68798666
QUICK STOP FOOD MART,39791,3604,3000,B,2751 W PRATT BLVD,60645,WEST RIDGE,2,50,17031020601,1.7031E+14,42.00475007,-87.69942278
QUINTESSENCE,2033012,350756,3000,B,1532 N PULASKI RD,60651,HUMBOLDT PARK,23,30,17031230600,1.70312E+14,41.90910776,-87.72663415
"R & S DISCOUNT FOOD, WINE, & LIQUOR",8647,4130,2800,B,2425 W DIVERSEY AVE,60647,LOGAN SQUARE,22,1,17031830900,1.70318E+14,41.93204685,-87.68897869
RAINBOW FINER FOOD & LIQUOR,9138,4236,3500,B,6316 S ASHLAND AVE,60636,WEST ENGLEWOOD,67,16,17031671200,1.70317E+14,41.77892241,-87.66435268
RAINBOW GROCERY,61801,19562,2500,B,2003 W 69TH ST,60636,WEST ENGLEWOOD,67,17,17031671500,1.70317E+14,41.76832833,-87.67381938
"RICH'S DELI & LIQUOR, INC",16735,6920,3400,B,857 N WESTERN AVE,60622,WEST TOWN,24,32,17031242400,1.70312E+14,41.89746098,-87.68673856
RICHWELL MARKET,1070189,205927,7500,B,1835 S CANAL ST,60616,LOWER WEST SIDE,31,25,17031843200,1.70318E+14,41.85665718,-87.63875335
RIGO'S GROCERY,1144306,215370,2500,B,2858 S LAWNDALE AVE,60623,SOUTH LAWNDALE,30,22,17031301702,1.70313E+14,41.83893675,-87.71723055
"RIO GRANDE FRUIT MARKET, INC.",1042285,201574,3750,B,3501 W NORTH AVE,60647,HUMBOLDT PARK,23,26,17031230800,1.70312E+14,41.90991071,-87.71438551
RITE PRICE FOOD,1198136,222688,3600,B,5606 W DIVISION ST,60651,AUSTIN,25,29,17031250600,1.70313E+14,41.90225069,-87.76595092
RIVERSIDE DELI,6403,3619,5500,B,1656 W CORTLAND ST,60622,LOGAN SQUARE,22,32,17031832300,1.70318E+14,41.91618612,-87.67013494
RIVIERA FOODS,39650,89265,3500,B,3218 N HARLEM AVE,60634,DUNNING,17,36,17031170800,1.70312E+14,41.93859128,-87.8069148
RJ Liquors,1597198,292263,3550,B,5640 W FULLERTON AVE,60639,BELMONT CRAGIN,19,30,17031190602,1.70312E+14,41.92406442,-87.76766049
RODRIGUEZ FRUITS & VEGETABLE,18231,7487,2626,B,2458 S ST LOUIS AVE,60623,SOUTH LAWNDALE,30,22,17031300700,1.70313E+14,41.84632986,-87.7125514
ROMAN BROS 1 INC,11900,5925,10001,A,6978 N CLARK ST,60626,ROGERS PARK,1,49,17031010702,1.7031E+14,42.00885647,-87.67408037
ROSE-RIDGE FOODS,1145417,216010,3000,B,10500 S MICHIGAN AVE,60628,ROSELAND,49,9,17031490902,1.70315E+14,41.70341522,-87.62080968
ROYLA BLUE FOODS,27007,63611,2500,B,4359 S CAMPBELL AVE,60632,BRIGHTON PARK,58,12,17031580700,1.70316E+14,41.81393768,-87.68692201
"S & K FOOD & LIQUOR, INC.",1544,291,10001,A,7500 S EXCHANGE AVE,60649,SOUTH SHORE,43,7,17031431302,1.70314E+14,41.75899276,-87.56037781
S & T PROVISION CO INC,12173,6018,10001,A,3804 W 111TH ST,60655,MOUNT GREENWOOD,74,19,17031740300,1.70317E+14,41.69144591,-87.7156731
S L PANTRY & GRILL,2013420,17935,2600,B,4759 N SHERIDAN RD,60640,UPTOWN,3,46,17031031501,1.7031E+14,41.96904667,-87.65467406
S. S. FOOD & LIQUOR,1476109,272992,2703,B,2427 N CLARK ST,60614,LINCOLN PARK,7,43,17031070101,1.70311E+14,41.9263717,-87.64080008
SAFAH FOOD & LIQUOR INC,14103,6462,3000,B,7105 S RACINE AVE,60636,ENGLEWOOD,68,17,17031681400,1.70317E+14,41.7648964,-87.65396483
SAHAR INTERNATIONAL SUPERMARKET,2079006,263556,7900,B,4851 N KEDZIE AVE,60625,ALBANY PARK,14,33,17031140100,1.70311E+14,41.96995754,-87.70837288
SAM FOOD AND LIQUOR,8745,4153,3000,B,6812 N SHERIDAN RD,60626,ROGERS PARK,1,49,17031010502,1.7031E+14,42.00594482,-87.66117475
SANABEL GROCERY & BAKERY,2009055,349374,6200,B,4213 N KEDZIE AVE,60618,IRVING PARK,16,33,17031160601,1.70312E+14,41.9579834,-87.70799592
SAVE-A-LOT   #856,1222884,216203,12000,A,5555 W NORTH AVE,60639,AUSTIN,25,37,17031250700,1.70313E+14,41.90927457,-87.76518779
SAVE-A-LOT  # 858,1272454,216203,12000,A,2858 E 83RD ST,60617,SOUTH CHICAGO,46,7,17031460302,1.70315E+14,41.74473084,-87.55403914
SAVE-A-LOT  #851,1167119,216203,114100,A,10700 S HALSTED ST,60628,MORGAN PARK,75,34,17031750100,1.70318E+14,41.69954741,-87.64275192
SAVE-A-LOT  #852,1145759,216203,14166,A,7240 S STONY ISLAND AVE,60649,SOUTH SHORE,43,5,17031430400,1.70314E+14,41.76302237,-87.58639016
SAVE-A-LOT  #859,1272455,216203,12000,A,420 S PULASKI RD,60624,WEST GARFIELD PARK,26,24,17031260700,1.70313E+14,41.87453731,-87.7255969
SAVE-A-LOT  #862,1353496,216203,14800,A,4701 S COTTAGE GROVE AVE,60615,KENWOOD,39,4,17031390400,1.70314E+14,41.80948925,-87.60641743
SAVE-A-LOT # 854,1245433,216203,15000,A,7908 S HALSTED ST,60620,AUBURN GRESHAM,71,17,17031710800,1.70317E+14,41.75032239,-87.64418241
SAVE-A-LOT #860,1196076,216203,12500,A,4439 W 63RD ST,60629,WEST LAWN,65,13,17031650301,1.70317E+14,41.77841597,-87.73405757
Save-A-Lot #882,2079367,216203,16290,A,344 E 63RD ST,60637,WASHINGTON PARK,40,20,17031400800,1.70314E+14,41.78032161,-87.61713538
Save-A-Lot #886,2079232,216203,13000,A,148 W 79TH ST,60620,GREATER GRAND CROSSING,69,17,17031691200,1.70317E+14,41.75098379,-87.62896145
SAVEWAY FOOD,1594450,290756,3000,B,313 E 43RD ST,60653,GRAND BOULEVARD,38,3,17031835800,1.70318E+14,41.81648632,-87.61919683
SERRELLI'S FOODS,6981,62794,4000,B,6454 W NORTH AVE,60707,AUSTIN,25,36,17031250500,1.70313E+14,41.9092299,-87.78712882
SEVEN ELEVEN,34710,14901,3000,B,1425 W MONTROSE AVE,60613,LAKE VIEW,6,47,17031060100,1.70311E+14,41.96152382,-87.66603986
"SEVEN NINE ELEVEN FOOD MART, INC.",2036,401,4300,B,4884 S ARCHER AVE,60632,ARCHER HEIGHTS,57,14,17031570400,1.70316E+14,41.80462115,-87.71990707
SHOP & SAVE MARKET,1991275,338404,63426,A,5829 S ARCHER AVE,60638,GARFIELD RIDGE,56,23,17031560700,1.70316E+14,41.79601962,-87.75968337
SHOP WISE FOOD,1334440,259101,6000,B,316 W 103RD ST,60628,ROSELAND,49,9,17031490700,1.70315E+14,41.70717395,-87.63140242
SOLID GOLD,1490386,203033,3300,B,3821 W ROOSEVELT RD,60624,NORTH LAWNDALE,29,24,17031838700,1.70318E+14,41.86611949,-87.72092757
SOUTH SHORE FOOD MARKET INC.,2008403,349092,3000,B,7501 S JEFFERY BLVD,60649,SOUTH SHORE,43,8,17031431200,1.70314E+14,41.75878729,-87.57599348
STANLEY'S,15042,6609,10001,A,1558 N ELSTON AVE,60622,WEST TOWN,24,32,17031842300,1.70318E+14,41.91057467,-87.66223523
STEVE FOOD & LIQUOR,47965,11529,3500,B,6058 S RACINE AVE,60636,WEST ENGLEWOOD,67,16,17031670900,1.70317E+14,41.78333418,-87.65474328
STOP & GO FOOD MART,26776,11123,3250,B,1622 W MONTEREY AVE,60643,MORGAN PARK,75,34,17031750600,1.70318E+14,41.68957477,-87.66272315
STRACK & VAN TIL,1798602,308026,65400,A,2627 N ELSTON AVE,60647,LOGAN SQUARE,22,1,17031830900,1.70318E+14,41.92948927,-87.68368782
SUN LIQUORS,19461,88712,4350,B,1101 W GRANVILLE AVE,60660,EDGEWATER,77,48,17031030102,1.7031E+14,41.99446571,-87.65839281
SUNRISE FOOD AND LIQUORS,21927,9067,7000,B,3737 W CHICAGO AVE,60651,HUMBOLDT PARK,23,27,17031231500,1.70312E+14,41.89531476,-87.72019984
"SUPER DOLLAR AND UP 4, INC.",1597521,291475,4000,B,1604 W 59TH ST,60636,WEST ENGLEWOOD,67,15,670300,1.70317E+14,41.78685263,-87.66461558
SUPER DOLLAR DISCOUNT,2032403,353027,3500,B,4801 S ASHLAND AVE,60609,NEW CITY,61,20,17031611200,1.70316E+14,41.80669392,-87.66477165
"SUPER FOOD & LIQUORS, INC.",40429,15748,4000,B,1049 W BRYN MAWR AVE,60660,EDGEWATER,77,48,17031030701,1.7031E+14,41.98356392,-87.65714629
SUPER FURNITURE & FOOD MART,2060727,357170,4000,B,5257 S ASHLAND AVE,60609,NEW CITY,61,16,17031611900,1.70316E+14,41.79782259,-87.66453688
SUPER JIM'S,37540,33441,4500,B,5147 W DIVISION ST,60651,AUSTIN,25,37,17031251100,1.70313E+14,41.90214722,-87.75523939
SUPER MAS MARKET,1997806,347422,32000,A,1422 W 47TH ST,60609,NEW CITY,61,3,17031842600,1.70318E+14,41.80876546,-87.66117011
SUPER MERCADO EL GUERRO,7546,3857,9375,B,1701 W 47TH ST,60609,NEW CITY,61,20,17031611300,1.70316E+14,41.80847124,-87.66745451
SUPER MERCADO LA CHIQUITA,6054,3546,9500,B,3555 W 26TH ST,60623,SOUTH LAWNDALE,30,22,17031301600,1.70313E+14,41.84427912,-87.71455377
SUPERIOR NUT & CANDY  CO.I INC.,1122087,26728,10005,A,1111 W 40TH ST,60609,NEW CITY,61,11,17031842600,1.70318E+14,41.82095749,-87.65377832
SUPERMARKET & TAQUERIA CARO,2014104,310507,4524,B,4937 W 47TH ST,60638,GARFIELD RIDGE,56,23,17031560300,1.70316E+14,41.80746088,-87.74706057
SUPERMERCADO ALEX,1772307,4076,9375,B,4134 W 31ST ST,60623,SOUTH LAWNDALE,30,22,17031301803,1.70313E+14,41.83694724,-87.72814236
SUPERMERCADO CHAPALA,32236,86830,10001,A,7117 N CLARK ST,60626,ROGERS PARK,1,49,17031010702,1.7031E+14,42.0119758,-87.67438406
SUPERMERCADO EL CUBANO INC,57265,6678,2750,B,4939 S ASHLAND AVE,60609,NEW CITY,61,20,17031611200,1.70316E+14,41.80378232,-87.66469533
SUPERMERCADO EL GUERO #10 INC,39978,10046,10001,A,4023 S ARCHER AVE,60632,BRIGHTON PARK,58,12,17031580600,1.70316E+14,41.82058304,-87.69342617
SUPERMERCADO EL GUERO NO. 8,20973,8662,14000,A,2101 W CERMAK RD,60608,LOWER WEST SIDE,31,25,17031841300,1.70318E+14,41.85202569,-87.67841224
SUPERMERCADO EL MEXICANO,1840895,295467,4387,B,6701 N CLARK ST,60626,ROGERS PARK,1,49,17031830600,1.70318E+14,42.00358497,-87.67235193
SUPERMERCADO GELA'S,67273,20695,3125,B,2701 S LAWNDALE AVE,60623,SOUTH LAWNDALE,30,22,17031301701,1.70313E+14,41.84242453,-87.71703032
SUPERMERCADO GUADALAJARA #2,3991,23651,6000,B,2300 S KEDZIE AVE,60623,SOUTH LAWNDALE,30,24,17031300800,1.70313E+14,41.84985753,-87.70534348
SUPERMERCADO GUERRERO,2042000,354339,3800,B,3100 W CERMAK RD,60623,SOUTH LAWNDALE,30,24,17031841700,1.70318E+14,41.85190837,-87.70287599
SUPERMERCADO LA CHIQUTIA # 4,49303,89325,10001,A,2623 S PULASKI RD,60623,SOUTH LAWNDALE,30,22,17031301701,1.70313E+14,41.84353489,-87.72438218
SUPERMERCADO LA VILLA,1800261,313811,9000,B,5020 W FULLERTON AVE,60639,BELMONT CRAGIN,19,31,17031190800,1.70312E+14,41.92427271,-87.75211504
Supermercado Santos,1091886,206261,4000,B,4045 W 31ST ST,60623,SOUTH LAWNDALE,30,22,17031830500,1.70318E+14,41.83674996,-87.72613266
SUPERMERCADO TEPECOA GUERRERO,1493584,277252,3500,B,3629 W 63RD ST,60629,WEST LAWN,65,13,17031650302,1.70317E+14,41.77868472,-87.71425166
"SWEQI FOOD MART, INC.",2055024,356315,2600,B,4100 W NORTH AVE,60639,HUMBOLDT PARK,23,30,17031230500,1.70312E+14,41.90996088,-87.72887496
"SZYMANSKI BROS, INC",18082,86677,3000,B,6016 W IRVING RD,60634,PORTAGE PARK,15,38,17031150502,1.70312E+14,41.95314974,-87.77751749
T & Z MEAT,1974575,343806,3000,B,3021 N CICERO AVE,60641,BELMONT CRAGIN,19,31,17031190100,1.70312E+14,41.93581593,-87.7466187
TAI NAM CORPORATION,34508,88874,10001,A,4925 N BROADWAY,60640,UPTOWN,3,48,17031031200,1.7031E+14,41.97221356,-87.6596091
TAI WAH GROCERY,28038,63654,3200,B,2226 S WENTWORTH AVE,60616,ARMOUR SQUARE,34,25,17031841100,1.70318E+14,41.8521272,-87.632144
THE CELLAR,1574603,286737,5000,B,3106 N HARLEM AVE,60634,DUNNING,17,36,17031170900,1.70312E+14,41.93661313,-87.80684752
THE FISH KEG INC,4908,3299,4000,B,2233 W HOWARD ST,60645,WEST RIDGE,2,49,17031020100,1.7031E+14,42.01939474,-87.6860205
THE MARKET PLACE FOODSTORE,10794,24875,16900,A,521 W DIVERSEY PKWY,60614,LINCOLN PARK,7,43,17031070102,1.70311E+14,41.93274396,-87.64221885
THE NEIGHBORHOOD STORE,47617,16859,4200,B,8313 S RACINE AVE,60620,AUBURN GRESHAM,71,21,17031711000,1.70317E+14,41.74278773,-87.65338425
THE PRODUCE CENTER,44723,16464,12000,A,5820 N MILWAUKEE AVE,60646,NORWOOD PARK,10,45,17031100100,1.70311E+14,41.98726964,-87.7785157
The Unit,2021618,351168,3500,B,2523 E 75TH ST,60649,SOUTH SHORE,43,7,17031431302,1.70314E+14,41.75892232,-87.56287604
THE WAREHOUSE,1843355,315225,6000,B,538 W 119TH ST,60628,WEST PULLMAN,53,34,17031530200,1.70315E+14,41.677986,-87.63620086
THREE BROTHER,6321,62766,10001,A,900 N FRANCISCO AVE,60622,WEST TOWN,24,26,17031242700,1.70312E+14,41.89810682,-87.69937838
THREE R FOOD,1943396,339315,3000,B,2712 W MONTROSE AVE,60618,ALBANY PARK,14,33,17031140800,1.70311E+14,41.96137095,-87.69666935
"THREE ROOSTERS, INC.",1980803,345267,4830,B,12247 S HALSTED ST,60628,WEST PULLMAN,53,34,17031530501,1.70315E+14,41.67097177,-87.64153305
Three Stars Liquors,1488855,274865,4600,B,310 N KOSTNER AVE,60624,WEST GARFIELD PARK,26,28,17031260400,1.70313E+14,41.88582299,-87.73578781
THRIFTY FOOD,1045545,28478,4000,B,928 W WILSON AVE,60640,UPTOWN,3,46,17031031501,1.7031E+14,41.9655577,-87.65355928
TIERRA CALIENTE MARKET,1769425,311388,3125,B,1402 N ASHLAND AVE,60622,WEST TOWN,24,1,17031241500,1.70312E+14,41.90710182,-87.66773966
"TONY'S FINER FOODS ENTERPRISES, INC.",1717867,305203,21000,A,3607 W FULLERTON AVE,60647,LOGAN SQUARE,22,35,17031220902,1.70312E+14,41.92449009,-87.71728813
"TONY'S FINER FOODS ENTERPRISES, INC.",1717529,305203,31000,A,4137 N ELSTON AVE,60618,IRVING PARK,16,39,17031160400,1.70312E+14,41.9561262,-87.72248283
"TONY'S FINER FOODS ENTERPRISES, INC.",1717532,305203,33000,A,4608 W BELMONT AVE,60641,PORTAGE PARK,15,30,17031151002,1.70312E+14,41.93899382,-87.74269899
"TONY'S FINER FOODS ENTERPRISES, INC.",1717568,305203,35000,A,2500 N CENTRAL AVE,60639,BELMONT CRAGIN,19,30,17031190602,1.70312E+14,41.92589288,-87.76620483
TRADER JOE'S,1991799,211718,15000,A,3745 N LINCOLN AVE,60613,NORTH CENTER,5,47,17031050600,1.70311E+14,41.94996117,-87.67567113
TRADER JOE'S EAST,1592120,211718,10615,A,44 E ONTARIO ST,60611,NEAR NORTH SIDE,8,42,17031081500,1.70311E+14,41.89340802,-87.62643774
TRADER JOE'S EAST,1277005,211718,11600,A,1840 N CLYBOURN AVE,60614,LINCOLN PARK,7,32,17031832600,1.70318E+14,41.91442371,-87.65462784
TRATTORIA ISABELLA,1842843,320408,3365,B,217 N JEFFERSON ST,60661,NEAR WEST SIDE,28,42,17031280100,1.70313E+14,41.88629367,-87.64264392
TREASURE ISLAND FOODS,1319,85291,10001,A,680 N LAKE SHORE DR,60611,NEAR NORTH SIDE,8,42,17031081401,1.70311E+14,41.89479837,-87.61586665
TREASURE ISLAND FOODS,1307,85291,10001,A,1639 N WELLS ST,60614,LINCOLN PARK,7,43,17031071500,1.70311E+14,41.9123118,-87.63459886
TREASURE ISLAND FOODS,1315,85291,10001,A,2121 N CLYBOURN AVE,60614,LINCOLN PARK,7,43,17031832500,1.70318E+14,41.91989968,-87.66180554
TREASURE ISLAND FOODS,1311,85291,10001,A,3460 N BROADWAY,60657,LAKE VIEW,6,44,17031062000,1.70311E+14,41.94482827,-87.64589349
TREASURE ISLAND FOODS INC,1303,85291,10001,A,75 W ELM ST,60610,NEAR NORTH SIDE,8,42,17031081000,1.70311E+14,41.90302614,-87.63134877
TWO BLUE FOODS INC,66710,20549,3000,B,702 E 100TH PL,60628,PULLMAN,50,8,17031500100,1.70315E+14,41.71240379,-87.60512759
ULTRA FOODS,1741082,308026,87600,A,3250 W 87TH ST,60652,ASHBURN,70,18,17031700402,1.70317E+14,41.73527409,-87.70351128
VIET HOA PLAZA,10540,85532,6174,B,1051 W ARGYLE ST,60640,UPTOWN,3,48,17031031200,1.7031E+14,41.97317401,-87.65699233
W & R FOOD & LIQUOR INC,19348,7922,2700,B,1717 E 79TH ST,60649,SOUTH CHICAGO,46,8,17031460500,1.70315E+14,41.7514187,-87.58220582
W K R B FOOD & LIQUOR,25165,10242,4340,B,9361 S COTTAGE GROVE AVE,60619,CHATHAM,44,8,17031440800,1.70314E+14,41.72386029,-87.60436472
WALLY'S INTERNATIONAL MARKET,32288,14504,10001,A,3256 N MILWAUKEE AVE,60618,AVONDALE,21,31,17031831100,1.70318E+14,41.94017781,-87.72585843
WALLY'S MARKET INC,72825,21938,33000,A,6601 W IRVING PARK RD,60634,DUNNING,17,38,17031170300,1.70312E+14,41.95272166,-87.79136221
WASHINGTON GROCERY,6249,23967,4200,B,4139 W FIFTH AVE,60624,WEST GARFIELD PARK,26,24,17031261000,1.70313E+14,41.87186361,-87.72905737
"WAY LOW DISCOUNT FOOD, INC.",41036,16053,2500,B,1551 S KEDZIE AVE,60623,NORTH LAWNDALE,29,24,17031843100,1.70318E+14,41.85984596,-87.70533855
WEST HAVEN MARKET & GRILL,17558,7111,3200,B,2132 W WASHINGTON BLVD,60612,NEAR WEST SIDE,28,2,17031837800,1.70318E+14,41.88319447,-87.68046649
WEST LAWN FOODS,1591726,289367,17000,A,5838 S PULASKI RD,60629,WEST ELSDON,62,13,17031620300,1.70316E+14,41.78660841,-87.72313003
WHOLE FOODS MARKET,54059,86298,4501,B,3300 N ASHLAND AVE,60657,LAKE VIEW,6,44,17031062500,1.70311E+14,41.94156586,-87.6688604
WHOLE FOODS MARKET,1678035,86298,6335,B,6020 N CICERO AVE,60646,FOREST GLEN,12,39,17031120200,1.70311E+14,41.99049477,-87.74847741
WHOLE FOODS MARKET,1678043,86298,11310,A,1101 S CANAL ST,60607,NEAR WEST SIDE,28,2,17031841900,1.70318E+14,41.86888971,-87.63909893
WHOLE FOODS MARKET,1678048,86298,19740,A,3640 N HALSTED ST,60613,LAKE VIEW,6,44,17031061000,1.70311E+14,41.9485198,-87.64967012
WHOLE FOODS MARKET,76395,86298,30591,A,30 W HURON ST,60610,NEAR NORTH SIDE,8,42,17031081600,1.70311E+14,41.89496867,-87.62939918
WHOLE FOODS MARKET,1933690,86298,74883,A,1550 N KINGSBURY ST,60642,NEAR NORTH SIDE,8,32,17031842200,1.70318E+14,41.90939879,-87.6530507
WILLIAM'S PRODUCE,2079521,359604,6375,B,6309 W GRAND AVE,60639,BELMONT CRAGIN,19,29,17031191301,1.70312E+14,41.92189423,-87.78339752
WINDY CITY INC,24289,9833,4225,B,324 S CICERO AVE,60644,AUSTIN,25,24,17031252202,1.70313E+14,41.87594436,-87.74525023
WORLD FRESH MARKET,1492163,21515,5500,B,2434 W DEVON AVE,60659,WEST RIDGE,2,50,17031020602,1.7031E+14,41.99781793,-87.69125189
Z & S FOOD & LIQUOR,7382,3827,6000,B,1351 W 87TH ST,60620,AUBURN GRESHAM,71,21,17031711400,1.70317E+14,41.73575698,-87.65782823
ZEE DOLLAR AND FOOD,2014197,350114,3000,B,375 E 75TH ST,60619,GREATER GRAND CROSSING,69,6,17031691300,1.70317E+14,41.75829332,-87.61535411
ZIAD CERTIFIED FOODS,9046,4213,2500,B,513 E 47TH ST,60653,GRAND BOULEVARD,38,3,17031381200,1.70314E+14,41.80932287,-87.61333552
WALGREENS # 05192,1144217,147,,A,2924 E 92ND ST,60617,SOUTH CHICAGO,46,7,17031461000,1.70315E+14,41.72833654,-87.55286024
WALGREENS #232,18449,147,,A,3405 S DR MARTIN LUTHER KING JR DR,60616,DOUGLAS,35,4,17031351000,1.70314E+14,41.8326245,-87.6168411
WALGREENS #162,18419,147,,A,1554 E 55TH ST,60615,HYDE PARK,41,4,17031410800,1.70314E+14,41.79529732,-87.58782256
WALGREENS #2073,18619,7551,,A,5401 S WENTWORTH AVE,60609,FULLER PARK,37,3,17031835600,1.70318E+14,41.79623488,-87.63040492
WALGREENS #2923,18551,147,,A,6330 S DR MARTIN LUTHER KING JR DR,60637,GREATER GRAND CROSSING,69,20,17031842500,1.70318E+14,41.77929761,-87.61574988
WALGREENS #11410,1959845,7551,,A,1627 N PULASKI RD,60639,HUMBOLDT PARK,23,30,17031230400,1.70312E+14,41.91071448,-87.72621042
WALGREENS #226,18468,147,,A,4005 W 26TH ST,60623,SOUTH LAWNDALE,30,22,17031301802,1.70313E+14,41.84414469,-87.72477825
WALMART,2164075,303471,,A,1424 W 47TH ST,60609,NEW CITY,61,3,17031842600,1.70318E+14,41.80876829,-87.66098821
PETE'S FRESH SUPERMARKET,1771242,312119,,A,2526 W CERMAK RD,60608,SOUTH LAWNDALE,30,28,17031840700,1.70318E+14,41.85210065,-87.68905111
SAVE-A-LOT # 866,1299911,216203,,A,3939 W OGDEN AVE,60623,NORTH LAWNDALE,29,22,17031843400,1.70318E+14,41.85128849,-87.72385084
MARIANO'S FRESH MARKET #8507,2163771,360006,,A,5353 N ELSTON AVE,60630,JEFFERSON PARK,11,45,17031110100,1.70311E+14,41.97871026,-87.75715377
WALGREENS # 06297,1248924,147,,A,6016 W 63RD ST,60638,CLEARING,64,23,17031640300,1.70316E+14,41.77795816,-87.7722942
WALGREENS #05034,18768,7551,,A,6315 S KEDZIE AVE,60629,CHICAGO LAWN,66,15,17031660600,1.70317E+14,41.77842134,-87.70297606
WALMART,,,,A,10900 S DOTY AVE W,60628,PULLMAN,50,9,17031500200,1.70315E+14,41.69631368,-87.59663224
LOUIS' GROCERIES,2153429,372246,,A,7604 S COTTAGE GROVE AVE,60619,GREATER GRAND CROSSING,69,6,17031691400,1.70317E+14,41.75655031,-87.60548285
